[
 {
  "id": 1,
  "name": "e삼성자동차운전전문학원 ",
  "phone": "031-335-3805",
  "address": "경기도 용인시 처인구 평옥로 5 ",
  "type": "1,2종보통,1종대형,대형견인차,2종소형(원동기)",
  "homepage": "http://www.ssdrive.kr",
  "lng": 127.212853,
  "lat": 37.2244961,
  "image": "https://github.com/dbswhdaks/academy_image/blob/main/1.png?raw=true",
  "kakao": "https://place.map.kakao.com/12847907?referrer=daumsearch_local",
  "naver": "https://m.place.naver.com/place/32278291/home?entry=pll"
 },
 {
  "id": 2,
  "name": "강릉자동차운전전문학원 ",
  "phone": "033-661-7777",
  "address": "강원도 강릉시 연곡면 동해대로 4100-28 (동덕리) ",
  "type": "1,2종보통",
  "homepage": "https://0336617777.modoo.at",
  "lng": 128.84477,
  "lat": 37.8493103,
  "image": "https://github.com/dbswhdaks/academy_image/blob/main/2.png?raw=true",
  "kakao": "https://place.map.kakao.com/m/9677145?referrer=daumsearch_local",
  "naver": "https://m.place.naver.com/place/11630563/home?entry=pll"
 },
 {
  "id": 3,
  "name": "영동자동차운전전문학원 ",
  "phone": "033-648-4444",
  "address": "강원도 강릉시 회산로 408번길 4 (홍제동) ",
  "type": "1,2종보통",
  "homepage": "http://www.033-648-4444.kti114.net",
  "lng": 128.87114,
  "lat": 37.7440283,
  "image": "https://github.com/dbswhdaks/academy_image/blob/main/3.png?raw=true",
  "kakao": "https://place.map.kakao.com/m/8010438?referrer=daumsearch_local",
  "naver": "https://m.place.naver.com/place/11863158/home?entry=pll"
 },
 {
  "id": 4,
  "name": "설악산자동차운전전문학원 ",
  "phone": "033-632-5000",
  "address": "강원도 고성군 토성면 풍곡길 63 ",
  "type": "1,2종보통,1종대형,소형견인차,2종소형(원동기)",
  "homepage": "http://www.newsc.co.kr",
  "lng": 128.543637,
  "lat": 38.2335238,
  "image": "https://github.com/dbswhdaks/academy_image/blob/main/4.png?raw=true",
  "kakao": "https://place.map.kakao.com/m/1872559974?referrer=daumsearch_local",
  "naver": "https://m.place.naver.com/place/36957344/home?entry=pll"
 },
 {
  "id": 5,
  "name": "동해자동차운전전문학원 ",
  "phone": "033-534-3303",
  "address": "강원도 동해시 새들길 20 (초구동) ",
  "type": "1,2종보통",
  "homepage": "https://blog.naver.com/ldh1659",
  "lng": 129.092381,
  "lat": 37.5770897,
  "image": "https://github.com/dbswhdaks/academy_image/blob/main/5.png?raw=true",
  "kakao": "https://place.map.kakao.com/m/8942822?referrer=daumsearch_local",
  "naver": "https://m.place.naver.com/place/1682671037/home?entry=pll"
 },
 {
  "id": 6,
  "name": "추암자동차운전전문학원 ",
  "phone": "033-522-2205",
  "address": "강원도 동해시 공단1로 80 (추암동) ",
  "type": "1,2종보통,1종대형",
  "lng": 129.148806,
  "lat": 37.4742282,
  "image": "https://github.com/dbswhdaks/academy_image/blob/main/6.png?raw=true",
  "kakao": "https://place.map.kakao.com/m/17969907?referrer=daumsearch_local",
  "naver": "https://m.place.naver.com/place/13500903/home?entry=pll"
 },
 {
  "id": 7,
  "name": "삼척자동차운전전문학원 ",
  "phone": "033-574-0882",
  "address": "강원도 삼척시 오십천로 68 (등봉동) ",
  "type": "1,2종보통",
  "lng": 129.128536,
  "lat": 37.4413719,
  "image": "https://github.com/dbswhdaks/academy_image/blob/main/7.png?raw=true",
  "kakao": "https://place.map.kakao.com/m/18826344?referrer=daumsearch_local",
  "naver": "https://m.place.naver.com/place/13500899/home?entry=pll"
 },
 {
  "id": 8,
  "name": "속초자동차운전전문학원 ",
  "phone": "033-635-3366",
  "address": "강원도 속초시 하도문길5 (도문동) ",
  "type": "1,2종보통",
  "homepage": "https://0336353366.modoo.at/",
  "lng": 128.598495,
  "lat": 38.161662,
  "image": "https://github.com/dbswhdaks/academy_image/blob/main/8.png?raw=true",
  "kakao": "https://place.map.kakao.com/m/9131321?referrer=daumsearch_local",
  "naver": "https://m.place.naver.com/place/1413328272/home?entry=pll"
 },
 {
  "id": 9,
  "name": "중부자동차운전전문학원 ",
  "phone": "033-481-8850",
  "address": "강원도 양구군 남면 지픈개길 43 (심포리) ",
  "type": "1,2종보통,1종대형,대형견인차",
  "homepage": "http://www.jbdriving.com/",
  "lng": 127.98551,
  "lat": 38.0577903,
  "image": "https://github.com/dbswhdaks/academy_image/blob/main/9.png?raw=true",
  "kakao": "https://place.map.kakao.com/m/890590800?referrer=daumsearch_local",
  "naver": "https://m.place.naver.com/place/1596963539/home?entry=pll"
 },
 {
  "id": 10,
  "name": "동남자동차운전전문학원 ",
  "phone": "033-374-3771",
  "address": "강원도 영월군 영월읍 중앙로 224-21 (덕포리) ",
  "type": "1,2종보통,1종대형",
  "lng": 128.475989,
  "lat": 37.1723844,
  "image": "https://github.com/dbswhdaks/academy_image/blob/main/10.png?raw=true",
  "kakao": "https://place.map.kakao.com/m/10308866?referrer=daumsearch_local",
  "naver": "https://m.place.naver.com/place/13500892/home?entry=pll"
 },
 {
  "id": 11,
  "name": "매지자동차운전전문학원 ",
  "phone": "033-762-2000",
  "address": "강원도 원주시 흥업면 북원로 1476-9 ",
  "type": "1,2종보통",
  "homepage": "http://www.mjdrive.co.kr",
  "lng": 127.911559,
  "lat": 37.2815641,
  "image": "https://github.com/dbswhdaks/academy_image/blob/main/11.png?raw=true",
  "kakao": "https://place.map.kakao.com/m/16420368?referrer=daumsearch_local",
  "naver": "https://m.place.naver.com/place/13500897/home?entry=pll"
 },
 {
  "id": 12,
  "name": "원주자동차운전전문학원 ",
  "phone": "033-763-3456",
  "address": "강원도 원주시 학마을길 60 (관설동) ",
  "type": "1,2종보통",
  "homepage": "http://0337633456.wazzang.com",
  "lng": 127.979176,
  "lat": 37.3004503,
  "image": "https://github.com/dbswhdaks/academy_image/blob/main/12.png?raw=true",
  "kakao": "https://place.map.kakao.com/m/9368091?referrer=daumsearch_local",
  "naver": "https://m.place.naver.com/place/31021489/home?entry=pll"
 },
 {
  "id": 13,
  "name": "흥업자동차운전전문학원 ",
  "phone": "033-763-7300",
  "address": "강원도 원주시 흥업면 승안동길 43 (대안리) ",
  "type": "1,2종보통,1종대형,소형견인차,2종소형(원동기)",
  "homepage": "http://www.hup.co.kr",
  "lng": 127.893735,
  "lat": 37.313307,
  "image": "https://github.com/dbswhdaks/academy_image/blob/main/13.png?raw=true",
  "kakao": "https://place.map.kakao.com/m/10957610?referrer=daumsearch_local",
  "naver": "https://m.place.naver.com/place/1778518579/home?entry=pll"
 },
 {
  "id": 14,
  "name": "동송자동차운전전문학원 ",
  "phone": "033-455-1500",
  "address": "강원도 철원군 동송읍 상노로 519 (오지리) ",
  "type": "1,2종보통,1종대형,대형견인차,2종소형(원동기)",
  "homepage": "http://www.dsdriving.co.kr",
  "lng": 127.227483,
  "lat": 38.1778735,
  "image": "https://github.com/dbswhdaks/academy_image/blob/main/14.png?raw=true",
  "kakao": "https://place.map.kakao.com/m/9778590?referrer=daumsearch_local",
  "naver": "https://m.place.naver.com/place/1745820557/home?entry=pll"
 },
 {
  "id": 15,
  "name": "성문자동차운전전문학원 ",
  "phone": "033-241-9100",
  "address": "강원도 춘천시 영서로 2528 (근화동) ",
  "type": "1,2종보통,1종대형,2종소형(원동기)",
  "lng": 127.715269,
  "lat": 37.8837854,
  "image": "https://github.com/dbswhdaks/academy_image/blob/main/15.png?raw=true",
  "kakao": "https://place.map.kakao.com/m/8635851?referrer=daumsearch_local",
  "naver": "https://m.place.naver.com/place/31273227/home?entry=pll"
 },
 {
  "id": 16,
  "name": "신촌자동차운전전문학원 ",
  "phone": "033-261-3388",
  "address": "강원도 춘천시 동내면 동내로 67-1 (신촌리) ",
  "type": "1,2종보통",
  "homepage": "http://scdrivingschool.only114.co.kr",
  "lng": 127.759962,
  "lat": 37.8491807,
  "image": "https://github.com/dbswhdaks/academy_image/blob/main/16.png?raw=true",
  "kakao": "https://place.map.kakao.com/m/7981167?referrer=daumsearch_local",
  "naver": "https://m.place.naver.com/place/13500895/home?entry=pll"
 },
 {
  "id": 17,
  "name": "미래자동차운전전문학원 ",
  "phone": "033-334-0038",
  "address": "강원도 평창군 진부면 간평길 79-28 (간평리) ",
  "type": "1,2종보통,1종대형",
  "lng": 128.586469,
  "lat": 37.6742573,
  "image": "https://github.com/dbswhdaks/academy_image/blob/main/17.png?raw=true",
  "kakao": "https://place.map.kakao.com/m/18013146?referrer=daumsearch_local",
  "naver": "https://m.place.naver.com/place/13500904/home?entry=pll"
 },
 {
  "id": 18,
  "name": "나래자동차운전전문학원 ",
  "phone": "033-432-7400",
  "address": "강원도 홍천군 홍천읍 홍천로 753 ",
  "type": "1,2종보통,1종대형",
  "homepage": "http://나래자동차운전전문학원.com/",
  "lng": 127.916103,
  "lat": 37.7126617,
  "image": "https://github.com/dbswhdaks/academy_image/blob/main/18.png?raw=true",
  "kakao": "https://place.map.kakao.com/m/13265778?referrer=daumsearch_local",
  "naver": "https://m.place.naver.com/place/36827265/home?entry=pll"
 },
 {
  "id": 19,
  "name": "홍천자동차운전전문학원 ",
  "phone": "033-432-3100",
  "address": "강원도 홍천군 북방면 홍천로 205-31 (하화계리) ",
  "type": "1,2종보통,1종대형,소형견인차",
  "homepage": "http://blog.naver.com/hc5_7",
  "lng": 127.870889,
  "lat": 37.6933723,
  "image": "https://github.com/dbswhdaks/academy_image/blob/main/19.png?raw=true",
  "kakao": "https://place.map.kakao.com/m/8627477?referrer=daumsearch_local",
  "naver": "https://m.place.naver.com/place/13500889/home?entry=pll"
 },
 {
  "id": 20,
  "name": "신진자동차운전전문학원 ",
  "phone": "033-342-7931",
  "address": "강원도 횡성군 횡성읍 입석로 118(남산리) ",
  "type": "1,2종보통",
  "homepage": "http://횡성신진자동차운전학원.fuv.kr",
  "lng": 127.991709,
  "lat": 37.4809118,
  "image": "https://github.com/dbswhdaks/academy_image/blob/main/20.png?raw=true",
  "kakao": "https://place.map.kakao.com/m/14491985?referrer=daumsearch_local",
  "naver": "https://m.place.naver.com/place/33949244/home?entry=pll"
 },
 {
  "id": 21,
  "name": "뉴강남자동차운전전문학원 ",
  "phone": "031-584-0502",
  "address": "경기도 가평군 설악면 신천중앙로28번길 3-132 (신천리) ",
  "type": "1,2종보통",
  "homepage": "http://www.drive7942.com",
  "lng": 127.493307,
  "lat": 37.6669194,
  "image": "https://github.com/dbswhdaks/academy_image/blob/main/21.png?raw=true",
  "kakao": "https://place.map.kakao.com/m/1048470595?referrer=daumsearch_local",
  "naver": "https://m.place.naver.com/place/1698355852/home?entry=pll"
 },
 {
  "id": 22,
  "name": "우리자동차운전전문학원 ",
  "phone": "031-582-0769",
  "address": "경기도 가평군 가평읍 태봉두밀로 34-71 (상색리) ",
  "type": "1,2종보통,1종대형",
  "homepage": "http://www.wooridrive.com",
  "lng": 127.486804,
  "lat": 37.8045674,
  "image": "https://github.com/dbswhdaks/academy_image/blob/main/22.png?raw=true",
  "kakao": "https://place.map.kakao.com/m/15251708?referrer=daumsearch_local",
  "naver": "https://m.place.naver.com/place/18881624/home?entry=pll"
 },
 {
  "id": 24,
  "name": "신원자동차운전전문학원 ",
  "phone": "031-923-0997",
  "address": "경기도 고양시 일산서구 덕산로 167 (가좌동) ",
  "type": "1,2종보통,1종대형,2종소형(원동기)",
  "homepage": "http://www.driveworld.co.kr",
  "lng": 126.720961,
  "lat": 37.6949474,
  "image": "https://github.com/dbswhdaks/academy_image/blob/main/24.png?raw=true",
  "kakao": "https://place.map.kakao.com/m/9853010?referrer=daumsearch_local",
  "naver": "https://m.place.naver.com/place/12071253/home?entry=pll"
 },
 {
  "id": 25,
  "name": "신일자동차운전전문학원 ",
  "phone": "031-977-1522",
  "address": "경기도 고양시 일산동구 성현로 268번길 93 (성석동) ",
  "type": "1,2종보통",
  "homepage": "http://www.shinil-car.co.kr",
  "lng": 126.814236,
  "lat": 37.7019166,
  "image": "https://github.com/dbswhdaks/academy_image/blob/main/25.png?raw=true",
  "kakao": "https://place.map.kakao.com/m/11115565?referrer=daumsearch_local",
  "naver": "https://m.place.naver.com/place/12297812/home?entry=pll"
 },
 {
  "id": 26,
  "name": "일산호수자동차운전전문학원 ",
  "phone": "031-994-1451",
  "address": "경기도 고양시 일산동구 장대길 160-38 (장항동)  ",
  "type": "1,2종보통",
  "homepage": "http://hsdriver.co.kr/",
  "lng": 126.762229,
  "lat": 37.6429981,
  "image": "https://github.com/dbswhdaks/academy_image/blob/main/26.png?raw=true",
  "kakao": "https://place.map.kakao.com/m/1337658510?referrer=daumsearch_local",
  "naver": "https://m.place.naver.com/place/1101621829/home?entry=pll"
 },
 {
  "id": 27,
  "name": "서울광명자동차운전전문학원 ",
  "phone": "02-894-6000",
  "address": "경기도 광명시 안현로 81 (하안동) ",
  "type": "1,2종보통,1종대형",
  "homepage": "http://www.sgcar.co.kr/",
  "lng": 126.87855,
  "lat": 37.4698077,
  "image": "https://github.com/dbswhdaks/academy_image/blob/main/27.png?raw=true",
  "kakao": "https://place.map.kakao.com/m/7944409?referrer=daumsearch_local",
  "naver": "https://m.place.naver.com/place/21054759/home?entry=pll"
 },
 {
  "id": 28,
  "name": "하남21C자동차운전전문학원 ",
  "phone": "031-763-2221",
  "address": "경기도 광주시 회안대로 982 (송정동) ",
  "type": "1,2종보통,2종소형(원동기)",
  "homepage": "http://www.hanam21c.co.kr/",
  "lng": 127.262846,
  "lat": 37.4324518,
  "image": "https://github.com/dbswhdaks/academy_image/blob/main/28.png?raw=true",
  "kakao": "https://place.map.kakao.com/m/1495599155?referrer=daumsearch_local",
  "naver": "https://m.place.naver.com/place/11738656/home?entry=pll"
 },
 {
  "id": 29,
  "name": "광주제일자동차운전전문학원 ",
  "phone": "031-761-1400",
  "address": "경기도 광주시 곤지암읍 삼리 612-10 (평촌길) ",
  "type": "1,2종보통,1종대형,소형견인차",
  "homepage": "http://www.jeildrive.kr",
  "lng": 127.332782,
  "lat": 37.3548884,
  "image": "https://github.com/dbswhdaks/academy_image/blob/main/29.png?raw=true",
  "kakao": "https://place.map.kakao.com/m/8774285?referrer=daumsearch_local",
  "naver": "https://m.place.naver.com/place/13122564/home?entry=pll"
 },
 {
  "id": 30,
  "name": "국제자동차운전전문학원 ",
  "phone": "031-718-7777",
  "address": "경기도 광주시 오포읍 신현로 55-10 (신현리)  ",
  "type": "1,2종보통,1종대형",
  "homepage": "http://01033944419.infom.kr/",
  "lng": 127.152982,
  "lat": 37.3616708,
  "image": "https://github.com/dbswhdaks/academy_image/blob/main/30.png?raw=true",
  "kakao": "https://place.map.kakao.com/m/17360922?referrer=daumsearch_local",
  "naver": "https://m.place.naver.com/place/30839820/home?entry=pll"
 },
 {
  "id": 31,
  "name": "모란자동차운전전문학원 ",
  "phone": "031-765-9999",
  "address": "경기도 광주시 절골길 83 (장지동) ",
  "type": "1,2종보통",
  "homepage": "http://www.mrdrive.kr",
  "lng": 127.229433,
  "lat": 37.4054006,
  "image": "https://github.com/dbswhdaks/academy_image/blob/main/31.png?raw=true",
  "kakao": "https://place.map.kakao.com/m/19184292?referrer=daumsearch_local",
  "naver": "https://m.place.naver.com/place/12890829/home?entry=pll"
 },
 {
  "id": 32,
  "name": "성남자동차운전전문학원 ",
  "phone": "031-767-6677",
  "address": "경기도 광주시 장지9길 140 (장지동) ",
  "type": "1,2종보통",
  "homepage": "http://sndrive.co.kr",
  "lng": 127.240455,
  "lat": 37.4047661,
  "image": "https://github.com/dbswhdaks/academy_image/blob/main/32.png?raw=true",
  "kakao": "https://place.map.kakao.com/m/8443413?referrer=daumsearch_local",
  "naver": "https://m.place.naver.com/place/1722650602/home?entry=pll"
 },
 {
  "id": 33,
  "name": "한신자동차운전전문학원 ",
  "phone": "1833-2122 ",
  "address": "경기도 김포시 양촌읍 석모리 17-2 ",
  "type": "1,2종보통",
  "homepage": "http://www.g-car.kr",
  "lng": 126.652644,
  "lat": 37.6664207,
  "image": "https://github.com/dbswhdaks/academy_image/blob/main/33.png?raw=true",
  "kakao": "https://place.map.kakao.com/m/1142110301?referrer=daumsearch_local",
  "naver": "https://m.place.naver.com/place/1912447523/home?entry=pll"
 },
 {
  "id": 34,
  "name": "서부자동차운전전문학원 ",
  "phone": "031-989-9011",
  "address": "경기도 김포시 양촌읍 김포한강4로 279-36 (석모리) ",
  "type": "1,2종보통,1종대형",
  "homepage": "http://서부운전전문학원.kr/",
  "lng": 126.651372,
  "lat": 37.6501904,
  "image": "https://github.com/dbswhdaks/academy_image/blob/main/34.png?raw=true",
  "kakao": "https://place.map.kakao.com/m/23217381?referrer=daumsearch_local",
  "naver": "https://m.place.naver.com/place/34239963/home?entry=pll"
 },
 {
  "id": 35,
  "name": "한강자동차운전전문학원 ",
  "phone": "031-996-6411",
  "address": "경기도 김포시 통진읍 율마로300번길 153 (가현리) ",
  "type": "1,2종보통,1종대형,2종소형(원동기)",
  "homepage": "http://www.hangangcar.co.kr/",
  "lng": 126.603816,
  "lat": 37.6814655,
  "image": "https://github.com/dbswhdaks/academy_image/blob/main/35.png?raw=true",
  "kakao": "https://place.map.kakao.com/m/11397115?referrer=daumsearch_local",
  "naver": "https://m.place.naver.com/place/21045332/home?entry=pll"
 },
 {
  "id": 36,
  "name": "NEW강동자동차운전전문학원 ",
  "phone": "031-527-3333",
  "address": "경기도 남양주시 진접읍 진건오남로 1048 (연평리) ",
  "type": "1,2종보통,1종대형",
  "homepage": "http://www.jeil82.com",
  "lng": 127.183657,
  "lat": 37.7123574,
  "image": "https://github.com/dbswhdaks/academy_image/blob/main/36.png?raw=true",
  "kakao": "https://place.map.kakao.com/m/907529992?referrer=daumsearch_local",
  "naver": "https://m.place.naver.com/place/1200301596/home?entry=pll"
 },
 {
  "id": 37,
  "name": "동일자동차운전전문학원 ",
  "phone": "031-595-3000",
  "address": "경기도 남양주시 경춘로 679-14 (일패동) ",
  "type": "1,2종보통,1종대형,대형견인차,2종소형(원동기)",
  "homepage": "http://www.dongil-car.co.kr",
  "lng": 127.180037,
  "lat": 37.621761,
  "image": "https://github.com/dbswhdaks/academy_image/blob/main/37.png?raw=true",
  "kakao": "https://place.map.kakao.com/m/8279977?referrer=daumsearch_local",
  "naver": "https://m.place.naver.com/place/18173528/home?entry=pll"
 },
 {
  "id": 38,
  "name": "양원자동차운전전문학원 ",
  "phone": "1544-3499 ",
  "address": "경기도 남양주시 진접읍 경복대로 212번길 27 ",
  "type": "1,2종보통,1종대형,대형견인차,2종소형(원동기)",
  "homepage": "http://www.ywdrive.com/",
  "lng": 127.206339,
  "lat": 37.7165907,
  "image": "https://github.com/dbswhdaks/academy_image/blob/main/38.png?raw=true",
  "kakao": "https://place.map.kakao.com/m/25692542?referrer=daumsearch_local",
  "naver": "https://m.place.naver.com/place/596823277/home?entry=pll"
 },
 {
  "id": 39,
  "name": "신광자동차운전전문학원 ",
  "phone": "031-862-6433",
  "address": "경기도 동두천시 벌마들로40번길 24-9 (상패동)  ",
  "type": "1,2종보통,1종대형,2종소형(원동기)",
  "homepage": "http://www.sinkwangdrive.com/",
  "lng": 127.040395,
  "lat": 37.9038904,
  "image": "https://github.com/dbswhdaks/academy_image/blob/main/39.png?raw=true",
  "kakao": "https://place.map.kakao.com/m/10524891?referrer=daumsearch_local",
  "naver": "https://m.place.naver.com/place/13128575/home?entry=pll"
 },
 {
  "id": 40,
  "name": "부천자동차운전전문학원 ",
  "phone": "032-679-3000",
  "address": "경기도 부천시 오정구 성오로 157 (오정동) ",
  "type": "1,2종보통",
  "homepage": "http://www.bcdriver.co.kr",
  "lng": 126.797354,
  "lat": 37.5266837,
  "image": "https://github.com/dbswhdaks/academy_image/blob/main/40.png?raw=true",
  "kakao": "https://place.map.kakao.com/m/12531446?referrer=daumsearch_local",
  "naver": "https://m.place.naver.com/place/21111462/home?entry=pll"
 },
 {
  "id": 41,
  "name": "신진중동자동차운전전문학원 ",
  "phone": "032-323-3388",
  "address": "경기도 부천시 평천로 651 (약대동) ",
  "type": "1,2종보통,2종소형(원동기)",
  "homepage": "http://www.sinjindrive.com/",
  "lng": 126.762806,
  "lat": 37.5155997,
  "image": "https://github.com/dbswhdaks/academy_image/blob/main/41.png?raw=true",
  "kakao": "https://place.map.kakao.com/m/8401750?referrer=daumsearch_local",
  "naver": "https://m.place.naver.com/place/13500883/home?entry=pll"
 },
 {
  "id": 42,
  "name": "뉴삼성자동차운전전문학원 ",
  "phone": "031-296-7711",
  "address": "경기도 수원시 권선구 매송고색로 506번길 18 (오목천동) ",
  "type": "1,2종보통,1종대형",
  "homepage": "http://www.newsamsung.net/",
  "lng": 126.960719,
  "lat": 37.2433295,
  "image": "https://github.com/dbswhdaks/academy_image/blob/main/42.png?raw=true",
  "kakao": "https://place.map.kakao.com/m/10177233?referrer=daumsearch_local",
  "naver": "https://m.place.naver.com/place/37633586/home?entry=pll"
 },
 {
  "id": 43,
  "name": "수원역자동차운전전문학원 ",
  "phone": "031-296-9696",
  "address": "경기도 수원시 권선구 매송고색로 828-17 (평동) ",
  "type": "1,2종보통,1종대형",
  "homepage": "http://www.driverschool.co.kr/",
  "lng": 126.996197,
  "lat": 37.2545362,
  "image": "https://github.com/dbswhdaks/academy_image/blob/main/43.png?raw=true",
  "kakao": "https://place.map.kakao.com/m/7963940?referrer=daumsearch_local",
  "naver": "https://m.place.naver.com/place/11532910/home?entry=pll"
 },
 {
  "id": 44,
  "name": "수원원천자동차운전전문학원 ",
  "phone": "031-217-8833",
  "address": "경기도 수원시 영통구 중부대로462번길 23 (원천동) ",
  "type": "1,2종보통",
  "homepage": "http://www.wonchuncar.com",
  "lng": 127.065656,
  "lat": 37.2674848,
  "image": "https://github.com/dbswhdaks/academy_image/blob/main/44.png?raw=true",
  "kakao": "https://place.map.kakao.com/m/14973973?referrer=daumsearch_local",
  "naver": "https://m.place.naver.com/place/20986080/home?entry=pll"
 },
 {
  "id": 45,
  "name": "수원현대자동차운전전문학원 ",
  "phone": "031-211-3431",
  "address": "경기도 수원시 영통구 중부대로 452 (원천동) ",
  "type": "1,2종보통,1종대형,2종소형(원동기)",
  "homepage": "http://www.hddriving.co.kr",
  "lng": 127.064529,
  "lat": 37.2685937,
  "image": "https://github.com/dbswhdaks/academy_image/blob/main/45.png?raw=true",
  "kakao": "https://place.map.kakao.com/m/13609705?referrer=daumsearch_local",
  "naver": "https://m.place.naver.com/place/13500862/home?entry=pll"
 },
 {
  "id": 46,
  "name": "e현대자동차운전전문학원 ",
  "phone": "031-433-5577",
  "address": "경기도 시흥시 서해안로 584-1 (정왕동) ",
  "type": "1종보통, 2종보통(수동), 2종보통(자동), 2종소형, 원동기",
  "homepage": "http://www.shcardrive.co.kr/",
  "lng": 126.738047,
  "lat": 37.3700435,
  "image": "https://github.com/dbswhdaks/academy_image/blob/main/46.png?raw=true",
  "kakao": "https://place.map.kakao.com/m/13603143?referrer=daumsearch_local",
  "naver": "https://m.place.naver.com/place/19579027/home?entry=pll"
 },
 {
  "id": 47,
  "name": "한빛자동차운전전문학원 ",
  "phone": "031-433-5500",
  "address": "경기도 시흥시 봉화로 49 (정왕동) ",
  "type": "1,2종보통,1종대형",
  "homepage": "http://www.hbcar.co.kr",
  "lng": 126.739445,
  "lat": 37.3673526,
  "image": "https://github.com/dbswhdaks/academy_image/blob/main/47.png?raw=true",
  "kakao": "https://place.map.kakao.com/m/9548273?referrer=daumsearch_local",
  "naver": "https://m.place.naver.com/place/1586854153/home?entry=pll"
 },
 {
  "id": 48,
  "name": "뉴현대자동차운전전문학원 ",
  "phone": "032-886-8376",
  "address": "경기도 안산시 단원구 영전로 76 (대부동동) ",
  "type": "1,2종보통,1종대형,소형견인차",
  "homepage": "http://www.nhddrive.com/",
  "lng": 126.597603,
  "lat": 37.2508294,
  "image": "https://github.com/dbswhdaks/academy_image/blob/main/48.png?raw=true",
  "kakao": "https://place.map.kakao.com/m/7971839?referrer=daumsearch_local",
  "naver": "https://m.place.naver.com/place/1575001650/home?entry=pll"
 },
 {
  "id": 49,
  "name": "단원자동차운전전문학원 ",
  "phone": "080-333-6600 ",
  "address": "경기도 안산시 단원구 대선로 40-5  ",
  "type": "1,2종보통,1종대형,대형견인차,소형견인차,2종소형(원동기)",
  "homepage": "http://danwondrive.com/",
  "lng": 126.56764,
  "lat": 37.2671132,
  "image": "https://github.com/dbswhdaks/academy_image/blob/main/49.png?raw=true",
  "kakao": "https://place.map.kakao.com/m/12734638?referrer=daumsearch_local",
  "naver": "https://m.place.naver.com/place/1232348900/home?entry=pll"
 },
 {
  "id": 50,
  "name": "안산대일자동차운전전문학원 ",
  "phone": "031-413-1100",
  "address": "경기도 안산시 단원구 원포공원로 45 (초지동) ",
  "type": "1,2종보통",
  "homepage": "http://www.daeildrive.co.kr/",
  "lng": 126.808788,
  "lat": 37.3030986,
  "image": "https://github.com/dbswhdaks/academy_image/blob/main/50.png?raw=true",
  "kakao": "https://place.map.kakao.com/m/1644082781?referrer=daumsearch_local",
  "naver": "https://m.place.naver.com/place/1216880880/home?entry=pll"
 },
 {
  "id": 51,
  "name": "공도삼성자동차운전전문학원 ",
  "phone": "031-655-6525",
  "address": "경기도 안성시 공도읍 봉기길 87 ",
  "type": "1,2종보통,1종대형",
  "homepage": "http://www.gddrive.kr/",
  "lng": 127.18802,
  "lat": 37.0001562,
  "image": "https://github.com/dbswhdaks/academy_image/blob/main/51.png?raw=true",
  "kakao": "https://place.map.kakao.com/m/1706606991?referrer=daumsearch_local",
  "naver": "https://m.place.naver.com/place/1346856577/home?entry=pll"
 },
 {
  "id": 52,
  "name": "안성신진자동차운전전문학원 ",
  "phone": "031-674-5454",
  "address": "경기도 안성시 중리길 30 (중리동)  ",
  "type": "1,2종보통",
  "homepage": "http://www.assdrive.co.kr",
  "lng": 127.270746,
  "lat": 36.9860757,
  "image": "https://github.com/dbswhdaks/academy_image/blob/main/52.png?raw=true",
  "kakao": "https://place.map.kakao.com/m/8400932?referrer=daumsearch_local",
  "naver": "https://m.place.naver.com/place/13500868/home?entry=pll"
 },
 {
  "id": 53,
  "name": "명학자동차운전전문학원 ",
  "phone": "031-468-6800",
  "address": "경기도 안양시 만안구 덕천로48번길 71 (안양동) ",
  "type": "1,2종보통,2종소형(원동기)",
  "homepage": "http://www.mhdrive.com/",
  "lng": 126.938724,
  "lat": 37.3866465,
  "image": "https://github.com/dbswhdaks/academy_image/blob/main/53.png?raw=true",
  "kakao": "https://place.map.kakao.com/m/16944725?referrer=daumsearch_local",
  "naver": "https://m.place.naver.com/place/1589747905/home?entry=pll"
 },
 {
  "id": 54,
  "name": "안양자동차운전전문학원 ",
  "phone": "031-472-3000",
  "address": "경기도 안양시 만안구 안양로 599 (석수동)  ",
  "type": "1,2종보통,1종대형,2종소형(원동기)",
  "homepage": "http://www.aycar.co.kr/",
  "lng": 126.905921,
  "lat": 37.4222417,
  "image": "https://github.com/dbswhdaks/academy_image/blob/main/54.png?raw=true",
  "kakao": "https://place.map.kakao.com/m/17453572?referrer=daumsearch_local",
  "naver": "https://m.place.naver.com/place/12249295/home?entry=pll"
 },
 {
  "id": 55,
  "name": "강북삼성자동차운전전문학원 ",
  "phone": "031-879-6500",
  "address": "경기도 양주시 백석읍 꿈나무로 93 (오산리)  ",
  "type": "1,2종보통",
  "homepage": "http://www.kbdrive.co.kr",
  "lng": 126.994684,
  "lat": 37.7987382,
  "image": "https://github.com/dbswhdaks/academy_image/blob/main/55.png?raw=true",
  "kakao": "https://place.map.kakao.com/m/15741379?referrer=daumsearch_local",
  "naver": "https://m.place.naver.com/place/12774817/home?entry=pll"
 },
 {
  "id": 56,
  "name": "북부중앙자동차운전전문학원 ",
  "phone": "031-841-9420",
  "address": "경기도 양주시 화합로 1221 (회정동) ",
  "type": "1,2종보통,1종대형,소형견인차",
  "homepage": "http://www.bbdrive114.co.kr",
  "lng": 127.052045,
  "lat": 37.8478653,
  "image": "https://github.com/dbswhdaks/academy_image/blob/main/56.png?raw=true",
  "kakao": "https://place.map.kakao.com/m/11431322?referrer=daumsearch_local",
  "naver": "https://m.place.naver.com/place/13180859/home?entry=pll"
 },
 {
  "id": 57,
  "name": "한미자동차운전전문학원 ",
  "phone": "031-847-4000",
  "address": "경기도 양주시 삼숭로 129번길 11 (삼숭동) ",
  "type": "1,2종보통,1종대형,대형견인차,구난차,소형견인차,2종소형(원동기)",
  "homepage": "http://www.hanmidrive.com/",
  "lng": 127.098649,
  "lat": 37.80323,
  "image": "https://github.com/dbswhdaks/academy_image/blob/main/57.png?raw=true",
  "kakao": "https://place.map.kakao.com/m/10006567?referrer=daumsearch_local",
  "naver": "https://m.place.naver.com/place/13139016/home?entry=pll"
 },
 {
  "id": 58,
  "name": "광원자동차운전전문학원 ",
  "phone": "031-771-7100",
  "address": "경기도 양평군 양평읍 중앙로 244-26 (도곡리)  ",
  "type": "1,2종보통",
  "homepage": "http://www.양평운전면허.com",
  "lng": 127.515023,
  "lat": 37.4889915,
  "image": "https://github.com/dbswhdaks/academy_image/blob/main/58.png?raw=true",
  "kakao": "https://place.map.kakao.com/m/8774852?referrer=daumsearch_local",
  "naver": "https://m.place.naver.com/place/13500876/home?entry=pll"
 },
 {
  "id": 59,
  "name": "뉴신진자동차운전전문학원 ",
  "phone": "031-886-5700",
  "address": "경기도 여주시 여주남로 236 ",
  "type": "1,2종보통",
  "homepage": "https://sjdriving.modoo.at/",
  "lng": 127.606999,
  "lat": 37.2689807,
  "image": "https://github.com/dbswhdaks/academy_image/blob/main/59.png?raw=true",
  "kakao": "https://place.map.kakao.com/m/11750018?referrer=daumsearch_local",
  "naver": "https://m.place.naver.com/place/19317685/home?entry=pll"
 },
 {
  "id": 60,
  "name": "연천자동차운전전문학원 ",
  "phone": "031-834-9880",
  "address": "경기도 연천군 연천읍 통현길 100 (통현리)  ",
  "type": "1,2종보통,1종대형,소형견인차",
  "homepage": "http://www.ycdrive.com",
  "lng": 127.081899,
  "lat": 38.0622252,
  "image": "https://github.com/dbswhdaks/academy_image/blob/main/60.png?raw=true",
  "kakao": "https://place.map.kakao.com/m/11862704?referrer=daumsearch_local",
  "naver": "https://m.place.naver.com/place/13124998/home?entry=pll"
 },
 {
  "id": 61,
  "name": "신삼성자동차운전전문학원 ",
  "phone": "031-223-3328",
  "address": "경기도 오산시 북삼미로 74 (내삼미동) ",
  "type": "1,2종보통,1종대형,대형견인차,소형견인차,2종소형(원동기)",
  "homepage": "http://sssdrive.kr/",
  "lng": 127.063039,
  "lat": 37.1824819,
  "image": "https://github.com/dbswhdaks/academy_image/blob/main/61.png?raw=true",
  "kakao": "https://m.map.kakao.com/actions/routeView?exEnc=MNMTUT&eyEnc=QOLNMSW&endLoc=%EA%B2%BD%EA%B8%B0%20%EC%98%A4%EC%82%B0%EC%8B%9C%20%EB%82%B4%EC%82%BC%EB%AF%B8%EB%8F%99%20275-1&ids=%2C",
  "naver": "https://m.place.naver.com/place/37332581/home?entry=pll"
 },
 {
  "id": 62,
  "name": "카카오자동차운전전문학원 ",
  "phone": "1599-1101 ",
  "address": "경기도 오산시 가장로 439번지(가장동) ",
  "type": "1,2종보통,1종대형,2종소형(원동기)",
  "homepage": "http://carcarodrive.co.kr/",
  "lng": 127.028369,
  "lat": 37.16205,
  "image": "https://github.com/dbswhdaks/academy_image/blob/main/62.png?raw=true",
  "kakao": "https://place.map.kakao.com/m/1358916147?referrer=daumsearch_local",
  "naver": "https://m.place.naver.com/place/1432534861/home?entry=pll"
 },
 {
  "id": 63,
  "name": "동탄자동차운전전문학원 ",
  "phone": "031-333-9995",
  "address": "경기도 용인시 처인구 남사읍 경기동로 121 ",
  "type": "1,2종보통",
  "homepage": "http://edtdrive.co.kr/",
  "lng": 127.141587,
  "lat": 37.1460485,
  "image": "https://github.com/dbswhdaks/academy_image/blob/main/63.png?raw=true",
  "kakao": "https://place.map.kakao.com/m/1285884781?referrer=daumsearch_local",
  "naver": "https://m.place.naver.com/place/1943678001/home?entry=pll"
 },
 {
  "id": 64,
  "name": "수지풍덕자동차운전전문학원 ",
  "phone": "031-261-3333",
  "address": "경기도 용인시 수지구 수풍로37번길 56 (풍덕천동)  ",
  "type": "1,2종보통",
  "homepage": "http://www.pungdukcar.com/",
  "lng": 127.084891,
  "lat": 37.3304639,
  "image": "https://github.com/dbswhdaks/academy_image/blob/main/64.png?raw=true",
  "kakao": "https://place.map.kakao.com/m/26520134?referrer=daumsearch_local",
  "naver": "https://m.place.naver.com/place/13428580/home?entry=pll"
 },
 {
  "id": 65,
  "name": "국제분당자동차운전전문학원 ",
  "phone": "031-333-7917",
  "address": "경기도 용인시 처인구 모현면 오산로13번길 64 (오산리) ",
  "type": "1,2종보통,1종대형",
  "homepage": "http://www.sinbundangcar.com",
  "lng": 127.162674,
  "lat": 37.3333749,
  "image": "https://github.com/dbswhdaks/academy_image/blob/main/65.png?raw=true",
  "kakao": "https://place.map.kakao.com/m/18341031?referrer=daumsearch_local",
  "naver": "https://m.place.naver.com/place/31134086/home?entry=pll"
 },
 {
  "id": 66,
  "name": "용인신갈자동차운전전문학원 ",
  "phone": "031-281-6363",
  "address": "경기도 용인시 기흥구 백남준로 28-13 (상갈동) ",
  "type": "1,2종보통",
  "homepage": "http://www.newdrive.co.kr",
  "lng": 127.115116,
  "lat": 37.2682676,
  "image": "https://github.com/dbswhdaks/academy_image/blob/main/66.png?raw=true",
  "kakao": "https://place.map.kakao.com/m/9281408?referrer=daumsearch_local",
  "naver": "https://m.place.naver.com/place/13503573/home?entry=pll"
 },
 {
  "id": 67,
  "name": "용인자동차운전전문학원 ",
  "phone": "031-339-7660",
  "address": "경기도 용인시 처인구 포곡읍 석성로 925",
  "type": "1,2종보통,1종대형",
  "homepage": "http://www.yongincar.co.kr",
  "lng": 127.245334,
  "lat": 37.2476624,
  "image": "https://github.com/dbswhdaks/academy_image/blob/main/67.png?raw=true",
  "kakao": "https://place.map.kakao.com/m/1078206221?referrer=daumsearch_local",
  "naver": "https://m.place.naver.com/place/1183840775/home?entry=pll"
 },
 {
  "id": 68,
  "name": "신현대자동차운전전문학원 ",
  "phone": "031-421-5000",
  "address": "경기도 의왕시 경수대로 321 (오전동) ",
  "type": "1,2종보통,1종대형,2종소형(원동기)",
  "homepage": "http://www.shinhyundai.co.kr/",
  "lng": 126.968346,
  "lat": 37.354393,
  "image": "https://github.com/dbswhdaks/academy_image/blob/main/68.png?raw=true",
  "kakao": "https://place.map.kakao.com/m/17079246?referrer=daumsearch_local",
  "naver": "https://m.place.naver.com/place/21107074/home?entry=pll"
 },
 {
  "id": 69,
  "name": "이천자동차운전전문학원 ",
  "phone": "031-631-7777",
  "address": "경기도 이천시 부발읍 황무로1605번길 109-73 (죽당리) ",
  "type": "1,2종보통,2종소형(원동기)",
  "homepage": "https://6317777.modoo.at",
  "lng": 127.520489,
  "lat": 37.2750051,
  "image": "https://github.com/dbswhdaks/academy_image/blob/main/69.png?raw=true",
  "kakao": "https://place.map.kakao.com/m/8483873?referrer=daumsearch_local",
  "naver": "https://m.place.naver.com/place/13500837/home?entry=pll"
 },
 {
  "id": 71,
  "name": "이천제일자동차운전전문학원 ",
  "phone": "031-638-0707",
  "address": "경기도 이천시 신둔면 원적로512번길 256-23 (도봉리) ",
  "type": "1,2종보통,1종대형",
  "homepage": "http://www.jeildriving.com",
  "lng": 127.451481,
  "lat": 37.3121845,
  "image": "https://github.com/dbswhdaks/academy_image/blob/main/71.png?raw=true",
  "kakao": "https://place.map.kakao.com/m/9447027?referrer=daumsearch_local",
  "naver": "https://m.place.naver.com/place/13500871/home?entry=pll"
 },
 {
  "id": 72,
  "name": "장호원자동차운전전문학원 ",
  "phone": "031-643-8000",
  "address": "경기도 이천시 장호원읍 장여로 229-33 (노탑리)  ",
  "type": "1,2종보통,1종대형,소형견인차",
  "homepage": "http://jhwcar.co.kr/",
  "lng": 127.624911,
  "lat": 37.137247,
  "image": "https://github.com/dbswhdaks/academy_image/blob/main/72.png?raw=true",
  "kakao": "https://place.map.kakao.com/m/10092903?referrer=daumsearch_local",
  "naver": "https://m.place.naver.com/place/1335983223/home?entry=pll"
 },
 {
  "id": 73,
  "name": "신진자동차운전전문학원 ",
  "phone": "1644-8677 ",
  "address": "경기도 파주시 월롱면 정문로293번길 93 ",
  "type": "1,2종보통,1종대형,대형견인차,소형견인차,2종소형(원동기)",
  "homepage": "http://1644-8677.com",
  "lng": 126.812461,
  "lat": 37.7890098,
  "image": "https://github.com/dbswhdaks/academy_image/blob/main/73.png?raw=true",
  "kakao": "https://place.map.kakao.com/m/312224640?referrer=daumsearch_local",
  "naver": "https://m.place.naver.com/place/1212573838/home?entry=pll"
 },
 {
  "id": 74,
  "name": "올리브자동차운전전문학원 ",
  "phone": "031-948-8600",
  "address": "경기도 파주시 탄현면 장릉로 5-23 (갈현리)  ",
  "type": "1,2종보통,1종대형,대형견인차,2종소형(원동기)",
  "homepage": "http://www.olivedriving.co.kr",
  "lng": 126.716988,
  "lat": 37.7730873,
  "image": "https://github.com/dbswhdaks/academy_image/blob/main/74.png?raw=true",
  "kakao": "https://place.map.kakao.com/m/8012503?referrer=daumsearch_local",
  "naver": "https://m.place.naver.com/place/11852463/home?entry=pll"
 },
 {
  "id": 75,
  "name": "자유로자동차운전전문학원 ",
  "phone": "031-947-9944",
  "address": "경기도 파주시 교하로1290번길 120-40 (다율동) ",
  "type": "1,2종보통,1종대형,대형견인차,구난차,소형견인차,2종소형(원동기)",
  "homepage": "http://www.jayuway.kr",
  "lng": 126.737518,
  "lat": 37.7450882,
  "image": "https://github.com/dbswhdaks/academy_image/blob/main/75.png?raw=true",
  "kakao": "https://place.map.kakao.com/m/8538280?referrer=daumsearch_local",
  "naver": "https://m.place.naver.com/place/13042107/home?entry=pll"
 },
 {
  "id": 76,
  "name": "정다운자동차운전전문학원 ",
  "phone": "031-954-5858",
  "address": "경기도 파주시 중앙로 80",
  "type": "1,2종보통,1종대형,대형견인차,소형견인차,2종소형(원동기)",
  "homepage": "http://www.pajucar.co.kr/",
  "lng": 126.794982,
  "lat": 37.7508519,
  "image": "https://github.com/dbswhdaks/academy_image/blob/main/76.png?raw=true",
  "kakao": "https://place.map.kakao.com/m/9528041?referrer=daumsearch_local",
  "naver": "https://m.place.naver.com/place/1780252523/home?entry=pll"
 },
 {
  "id": 77,
  "name": "하예서부자동차운전전문학원 ",
  "phone": "1522-3208 ",
  "address": "경기도 파주시 파주읍 학당말길 191 ",
  "type": "1,2종보통,1종대형",
  "homepage": "http://www.hayedrive.com/",
  "lng": 126.821158,
  "lat": 37.8400172,
  "image": "https://github.com/dbswhdaks/academy_image/blob/main/77.png?raw=true",
  "kakao": "https://place.map.kakao.com/m/18606244?referrer=daumsearch_local",
  "naver": "https://m.place.naver.com/place/1238523798/home?entry=pll"
 },
 {
  "id": 78,
  "name": "한수자동차운전전문학원 ",
  "phone": "031-943-0037",
  "address": "경기도 파주시 교하로 507 (동패동) ",
  "type": "1,2종보통,1종대형",
  "homepage": "http://www.한수자동차운전전문학원.com",
  "lng": 126.721003,
  "lat": 37.704714,
  "image": "https://github.com/dbswhdaks/academy_image/blob/main/78.png?raw=true",
  "kakao": "https://place.map.kakao.com/m/15992164?referrer=daumsearch_local",
  "naver": "https://m.place.naver.com/place/13500872/home?entry=pll"
 },
 {
  "id": 79,
  "name": "대동자동차운전전문학원 ",
  "phone": "031-655-5252",
  "address": "경기도 평택시 팽성읍 안정순환로 21 (송화리) ",
  "type": "1,2종보통",
  "homepage": "http://www.ddrive.kr/",
  "lng": 127.051244,
  "lat": 36.9530759,
  "image": "https://github.com/dbswhdaks/academy_image/blob/main/79.png?raw=true",
  "kakao": "https://place.map.kakao.com/m/10257353?referrer=daumsearch_local",
  "naver": "https://m.place.naver.com/place/13500869/home?entry=pll"
 },
 {
  "id": 80,
  "name": "삼성자동차운전전문학원 ",
  "phone": "031-665-4770",
  "address": "경기도 평택시 노루댕이1길 18-5",
  "type": "1,2종보통,1종대형,소형견인차,2종소형(원동기)",
  "homepage": "http://ssda.co.kr",
  "lng": 127.063747,
  "lat": 37.0438265,
  "image": "https://github.com/dbswhdaks/academy_image/blob/main/80.png?raw=true",
  "kakao": "https://place.map.kakao.com/m/10446406?referrer=daumsearch_local",
  "naver": "https://m.place.naver.com/place/11542688/home?entry=pll"
 },
 {
  "id": 81,
  "name": "송탄역자동차운전전문학원 ",
  "phone": "031-655-0992",
  "address": "경기도 평택시 목천로72-17 ",
  "type": "1,2종보통,1종대형",
  "homepage": "http://drivingacademy.co.kr/",
  "lng": 127.057159,
  "lat": 37.0885767,
  "image": "https://github.com/dbswhdaks/academy_image/blob/main/81.png?raw=true",
  "kakao": "https://place.map.kakao.com/m/1895838204?referrer=daumsearch_local",
  "naver": "https://m.place.naver.com/place/34077281/home?entry=pll"
 },
 {
  "id": 82,
  "name": "신동아자동차운전전문학원 ",
  "phone": "031-663-5300",
  "address": "경기도 평택시 서탄면 발안로 927 (내천리) ",
  "type": "1,2종보통,1종대형",
  "homepage": "http://sdonga.com/",
  "lng": 127.004984,
  "lat": 37.1256324,
  "image": "https://github.com/dbswhdaks/academy_image/blob/main/82.png?raw=true",
  "kakao": "https://m.map.kakao.com/actions/routeView?ex=127.005265863277&ey=37.1257947339467&endLoc=%EA%B2%BD%EA%B8%B0%20%ED%8F%89%ED%83%9D%EC%8B%9C%20%EC%84%9C%ED%83%84%EB%A9%B4%20%EB%B0%9C%EC%95%88%EB%A1%9C%20927&from=total&ids=,AN29819828&service=TDAUM&inputCoordSystem=WGS84",
  "naver": "https://m.place.naver.com/place/38724476/home?entry=pll"
 },
 {
  "id": 83,
  "name": "중앙자동차운전전문학원 ",
  "phone": "031-656-0007",
  "address": "경기도 평택시 울성길35 (신대동) ",
  "type": "1,2종보통",
  "homepage": "http://jadrive.co.kr/",
  "lng": 127.071826,
  "lat": 37.0039404,
  "image": "https://github.com/dbswhdaks/academy_image/blob/main/83.png?raw=true",
  "kakao": "https://place.map.kakao.com/m/1505071985?referrer=daumsearch_local",
  "naver": "https://m.place.naver.com/place/1805057221/home?entry=pll"
 },
 {
  "id": 84,
  "name": "평택안중자동차운전전문학원 ",
  "phone": "031-682-1140",
  "address": "경기도 평택시 안중읍 서동대로 1673-56 ",
  "type": "1,2종보통,1종대형",
  "homepage": "http://www.ptajdrive.co.kr/",
  "lng": 126.937297,
  "lat": 36.9923562,
  "image": "https://github.com/dbswhdaks/academy_image/blob/main/84.png?raw=true",
  "kakao": "https://place.map.kakao.com/m/812660128?referrer=daumsearch_local",
  "naver": "https://m.place.naver.com/place/1302532721/home?entry=pll"
 },
 {
  "id": 85,
  "name": "강북제일자동차운전전문학원 ",
  "phone": "031-534-7600",
  "address": "경기도 포천시 영북면 문암길 20-1 (문암리) ",
  "type": "1,2종보통,1종대형",
  "homepage": "http://kjeildrive.co.kr/",
  "lng": 127.273083,
  "lat": 38.0809299,
  "image": "https://github.com/dbswhdaks/academy_image/blob/main/85.png?raw=true",
  "kakao": "https://place.map.kakao.com/m/26393624?referrer=daumsearch_local",
  "naver": "https://m.place.naver.com/place/1410257326/home?entry=pll"
 },
 {
  "id": 86,
  "name": "그린자동차운전전문학원 ",
  "phone": "031-542-2900",
  "address": "경기도 포천시 소흘읍 호국로 223-38 (이동교리)  ",
  "type": "1,2종보통,1종대형,소형견인차",
  "homepage": "http://www.gdts.co.kr",
  "lng": 127.123583,
  "lat": 37.7950621,
  "image": "https://github.com/dbswhdaks/academy_image/blob/main/86.png?raw=true",
  "kakao": "https://place.map.kakao.com/m/12611231?referrer=daumsearch_local",
  "naver": "https://m.place.naver.com/place/1875928996/home?entry=pll"
 },
 {
  "id": 87,
  "name": "대진자동차운전전문학원 ",
  "phone": "031-541-6181",
  "address": "경기도 포천시 군내면 포천로909번길 31 (유교리)  ",
  "type": "1,2종보통,1종대형",
  "homepage": "http://www.djdrive.kr",
  "lng": 127.194305,
  "lat": 37.8519616,
  "image": "https://github.com/dbswhdaks/academy_image/blob/main/87.png?raw=true",
  "kakao": "https://place.map.kakao.com/m/8900455?referrer=daumsearch_local",
  "naver": "https://m.place.naver.com/place/20475783/home?entry=pll"
 },
 {
  "id": 88,
  "name": "행운자동차운전전문학원 ",
  "phone": "031-535-9911",
  "address": "경기도 포천시 신북면 중앙로 332-34 (가채리) ",
  "type": "1,2종보통,1종대형",
  "homepage": "http://www.hwolle.co.kr",
  "lng": 127.215077,
  "lat": 37.9151538,
  "image": "https://github.com/dbswhdaks/academy_image/blob/main/88.png?raw=true",
  "kakao": "https://place.map.kakao.com/m/10110396?referrer=daumsearch_local",
  "naver": "https://m.place.naver.com/place/36615283/home?entry=pll"
 },
 {
  "id": 89,
  "name": "상록수자동차운전전문학원 ",
  "phone": "031-355-7360",
  "address": "경기도 화성시 비봉면 하저자안로 207 (자안리)  ",
  "type": "1,2종보통,1종대형,소형견인차,2종소형(원동기)",
  "homepage": "http://www.ssdriving.co.kr",
  "lng": 126.874353,
  "lat": 37.1966844,
  "image": "https://github.com/dbswhdaks/academy_image/blob/main/89.png?raw=true",
  "kakao": "https://place.map.kakao.com/m/12381472?referrer=daumsearch_local",
  "naver": "https://m.place.naver.com/place/33546315/home?entry=pll"
 },
 {
  "id": 90,
  "name": "아시아자동차운전전문학원 ",
  "phone": "031-239-8477",
  "address": "경기도 화성시 경기대로 979 (병점동) ",
  "type": "1,2종보통",
  "homepage": "http://www.asiadrive.co.kr/",
  "lng": 127.036798,
  "lat": 37.2029644,
  "image": "https://github.com/dbswhdaks/academy_image/blob/main/90.png?raw=true",
  "kakao": "https://place.map.kakao.com/m/10594357?referrer=daumsearch_local",
  "naver": "https://m.place.naver.com/place/13500863/home?entry=pll"
 },
 {
  "id": 91,
  "name": "화성향남자동차운전전문학원 ",
  "phone": "031-351-8900",
  "address": "경기도 화성시 우정읍 3.1만세로 199-17 ",
  "type": "1,2종보통,1종대형,대형견인차,소형견인차,2종소형(원동기)",
  "homepage": "http://www.bonodrive.co.kr/",
  "lng": 126.828536,
  "lat": 37.0914464,
  "image": "https://github.com/dbswhdaks/academy_image/blob/main/91.png?raw=true",
  "kakao": "https://place.map.kakao.com/m/547394865?referrer=daumsearch_local",
  "naver": "https://m.place.naver.com/place/12821807/home?entry=pll"
 },
 {
  "id": 92,
  "name": "거제자동차운전전문학원 ",
  "phone": "055-632-1320",
  "address": "경상남도 거제시 제산로2길 11 (양정동) ",
  "type": "1,2종보통,1종대형,2종소형(원동기)",
  "lng": 128.640156,
  "lat": 34.8880615,
  "image": "https://github.com/dbswhdaks/academy_image/blob/main/92.png?raw=true",
  "kakao": "https://place.map.kakao.com/m/11505113?referrer=daumsearch_local",
  "naver": "https://m.place.naver.com/place/13501032/home?entry=pll"
 },
 {
  "id": 93,
  "name": "옥포자동차운전전문학원 ",
  "phone": "055-687-7171",
  "address": "경상남도 거제시 옥포대첩로 272-13 (덕포동) ",
  "type": "1,2종보통",
  "lng": 128.705241,
  "lat": 34.906877,
  "image": "https://github.com/dbswhdaks/academy_image/blob/main/93.png?raw=true",
  "kakao": "https://place.map.kakao.com/m/19265270?referrer=daumsearch_local",
  "naver": "https://m.place.naver.com/place/13501045/home?entry=pll"
 },
 {
  "id": 94,
  "name": "거창자동차운전전문학원 ",
  "phone": "055-942-6754",
  "address": "경상남도 거창군 거창읍 죽전4길 119-22 (가지리) ",
  "type": "1,2종보통",
  "lng": 127.911045,
  "lat": 35.6957309,
  "image": "https://github.com/dbswhdaks/academy_image/blob/main/94.png?raw=true",
  "kakao": "https://place.map.kakao.com/m/15204069?referrer=daumsearch_local",
  "naver": "https://m.place.naver.com/place/13501046/home?entry=pll"
 },
 {
  "id": 95,
  "name": "현대자동차운전전문학원 ",
  "phone": "055-943-9595",
  "address": "경상남도 거창군 거창읍 새동네2길 53 (대평리) ",
  "type": "1,2종보통,1종대형",
  "lng": 127.928931,
  "lat": 35.688033,
  "image": "https://github.com/dbswhdaks/academy_image/blob/main/95.png?raw=true",
  "kakao": "https://place.map.kakao.com/m/2070148649?referrer=daumsearch_local",
  "naver": "https://m.place.naver.com/place/13501041/home?entry=pll"
 },
 {
  "id": 96,
  "name": "고성자동차운전전문학원 ",
  "phone": "055-673-5454",
  "address": "경상남도 고성군 고성읍 남해안대로 2305 (신월리) ",
  "type": "1,2종보통",
  "lng": 128.342951,
  "lat": 34.9515699,
  "image": "https://github.com/dbswhdaks/academy_image/blob/main/96.png?raw=true",
  "kakao": "https://place.map.kakao.com/m/8743755?referrer=daumsearch_local",
  "naver": "https://m.place.naver.com/place/12883668/home?entry=pll"
 },
 {
  "id": 97,
  "name": "김해자동차운전전문학원 ",
  "phone": "055-321-2001",
  "address": "경상남도 김해시 김해대로 2569 (어방동) ",
  "type": "1,2종보통",
  "homepage": "http://www.fine-car.com",
  "lng": 128.908153,
  "lat": 35.2295095,
  "image": "https://github.com/dbswhdaks/academy_image/blob/main/97.png?raw=true",
  "kakao": "https://place.map.kakao.com/m/8814644?referrer=daumsearch_local",
  "naver": "https://m.place.naver.com/place/11549130/home?entry=pll"
 },
 {
  "id": 98,
  "name": "장유자동차운전전문학원 ",
  "phone": "055-314-0808",
  "address": "경상남도 김해시 주촌면 금관대로 751 (농소리) ",
  "type": "1,2종보통,1종대형,대형견인차,2종소형(원동기)",
  "homepage": "http://www.jycar.co.kr",
  "lng": 128.830652,
  "lat": 35.2077886,
  "image": "https://github.com/dbswhdaks/academy_image/blob/main/98.png?raw=true",
  "kakao": "https://place.map.kakao.com/m/8435375?referrer=daumsearch_local",
  "naver": "https://m.place.naver.com/place/13500847/home?entry=pll"
 },
 {
  "id": 99,
  "name": "한일자동차운전전문학원 ",
  "phone": "055-334-3001",
  "address": "경상남도 김해시 분성로3번길 235-34 (내동) ",
  "type": "1,2종보통,1종대형",
  "lng": 128.862613,
  "lat": 35.2480349,
  "image": "https://github.com/dbswhdaks/academy_image/blob/main/99.png?raw=true",
  "kakao": "https://place.map.kakao.com/m/11217445?referrer=daumsearch_local",
  "naver": "https://m.place.naver.com/place/13500813/home?entry=pll"
 },
 {
  "id": 100,
  "name": "밀양자동차운전전문학원 ",
  "phone": "055-355-6001",
  "address": "경상남도 밀양시 부북면 청운로 200 (덕곡리) ",
  "type": "1,2종보통,1종대형",
  "homepage": "https://blog.naver.com/myda6001",
  "lng": 128.713808,
  "lat": 35.5149652,
  "image": "https://github.com/dbswhdaks/academy_image/blob/main/100.png?raw=true",
  "kakao": "https://place.map.kakao.com/m/10402368?referrer=daumsearch_local",
  "naver": "https://m.place.naver.com/place/13501050/home?entry=pll"
 },
 {
  "id": 101,
  "name": "현대자동차운전전문학원 ",
  "phone": "055-354-8881",
  "address": "경상남도 밀양시 용평로 79 (용평동) ",
  "type": "1,2종보통,1종대형",
  "lng": 128.762714,
  "lat": 35.4953364,
  "image": "https://github.com/dbswhdaks/academy_image/blob/main/101.png?raw=true",
  "kakao": "https://place.map.kakao.com/m/9018136?referrer=daumsearch_local",
  "naver": "https://m.place.naver.com/place/13501051/home?entry=pll"
 },
 {
  "id": 102,
  "name": "사천자동차운전전문학원 ",
  "phone": "055-854-5415",
  "address": "경상남도 사천시 용현면 공단4로 28-36 (선진리) ",
  "type": "1,2종보통,1종대형,대형견인차,2종소형(원동기)",
  "lng": 128.04646,
  "lat": 35.0495097,
  "image": "https://github.com/dbswhdaks/academy_image/blob/main/102.png?raw=true",
  "kakao": "https://place.map.kakao.com/m/9801361?referrer=daumsearch_local",
  "naver": "https://m.place.naver.com/place/13099317/home?entry=pll"
 },
 {
  "id": 103,
  "name": "삼천포자동차운전전문학원 ",
  "phone": "055-833-3233",
  "address": "경상남도 사천시 삼천포대교로 566 (좌룡동) ",
  "type": "1,2종보통",
  "lng": 128.078329,
  "lat": 34.9480845,
  "image": "https://github.com/dbswhdaks/academy_image/blob/main/103.png?raw=true",
  "kakao": "https://place.map.kakao.com/m/9102664?referrer=daumsearch_local",
  "naver": "https://m.place.naver.com/place/13501047/home?entry=pll"
 },
 {
  "id": 104,
  "name": "국제자동차운전전문학원 ",
  "phone": "055-388-7080",
  "address": "경상남도 양산시 덕계북길 25(덕계동) ",
  "type": "1,2종보통,1종대형,대형견인차",
  "homepage": "http:///cafe.naver.com/kukjedrive",
  "lng": 129.157577,
  "lat": 35.3834054,
  "image": "https://github.com/dbswhdaks/academy_image/blob/main/104.png?raw=true",
  "kakao": "https://place.map.kakao.com/m/11032012?referrer=daumsearch_local",
  "naver": "https://m.place.naver.com/place/13500810/home?entry=pll"
 },
 {
  "id": 105,
  "name": "남양산자동차운전전문학원 ",
  "phone": "055-367-1472",
  "address": "경상남도 양산시 동면 남양산2길 26 (석산리) ",
  "type": "1,2종보통,1종대형,대형견인차,2종소형(원동기)",
  "lng": 129.029965,
  "lat": 35.3269162,
  "image": "https://github.com/dbswhdaks/academy_image/blob/main/105.png?raw=true",
  "kakao": "https://place.map.kakao.com/m/11019921?referrer=daumsearch_local",
  "naver": "https://m.place.naver.com/place/13500848/home?entry=pll"
 },
 {
  "id": 106,
  "name": "대성자동차운전전문학원 ",
  "phone": "055-375-2580",
  "address": "경상남도 양산시 상북면 양산대로 1266 (소토리) ",
  "type": "1,2종보통,1종대형",
  "lng": 129.051212,
  "lat": 35.3818602,
  "image": "https://github.com/dbswhdaks/academy_image/blob/main/106.png?raw=true",
  "kakao": "https://place.map.kakao.com/m/9664013?referrer=daumsearch_local",
  "naver": "https://m.place.naver.com/place/13500833/home?entry=pll"
 },
 {
  "id": 107,
  "name": "풍원자동차운전전문학원 ",
  "phone": "055-389-2521",
  "address": "경상남도 양산시 용주로 21 (용당동) ",
  "type": "1,2종보통,1종대형,대형견인차,구난차",
  "homepage": "http://www.pwdrive.com",
  "lng": 129.180931,
  "lat": 35.4281673,
  "image": "https://github.com/dbswhdaks/academy_image/blob/main/107.png?raw=true",
  "kakao": "https://m.map.kakao.com/actions/routeView?exEnc=YVSOLM&eyEnc=MSLMQM&endLoc=%EA%B2%BD%EB%82%A8%20%EC%96%91%EC%82%B0%EC%8B%9C%20%EC%9A%A9%EB%8B%B9%EB%8F%99%20842&ids=%2C",
  "naver": "https://m.place.naver.com/place/1019829591/home?entry=pll"
 },
 {
  "id": 108,
  "name": "도원성자동차운전전문학원 ",
  "phone": "055-746-3666",
  "address": "경상남도 진주시 남강로 155-26 (평거동) ",
  "type": "1,2종보통,1종대형",
  "homepage": "http://www.dowonsung.com",
  "lng": 128.049196,
  "lat": 35.1631504,
  "image": "https://github.com/dbswhdaks/academy_image/blob/main/108.png?raw=true",
  "kakao": "https://place.map.kakao.com/m/7833196?referrer=daumsearch_local",
  "naver": "https://m.place.naver.com/place/13501040/home?entry=pll"
 },
 {
  "id": 109,
  "name": "서부경남자동차운전전문학원 ",
  "phone": "055-759-9866",
  "address": "경상남도 진주시 금곡면 정자천로15번길 15 (정자리) ",
  "type": "1,2종보통,1종대형,2종소형(원동기)",
  "homepage": "http://sbcar.co.kr",
  "lng": 128.172368,
  "lat": 35.1383364,
  "image": "https://github.com/dbswhdaks/academy_image/blob/main/109.png?raw=true",
  "kakao": "https://place.map.kakao.com/m/18026244?referrer=daumsearch_local",
  "naver": "https://m.place.naver.com/place/13501044/home?entry=pll"
 },
 {
  "id": 110,
  "name": "정오자동차운전전문학원 ",
  "phone": "055-761-8888",
  "address": "경상남도 진주시 대신로 642-34 (장재동) ",
  "type": "1,2종보통,1종대형",
  "homepage": "https://jungocar.modoo.at",
  "lng": 128.108762,
  "lat": 35.2175453,
  "image": "https://github.com/dbswhdaks/academy_image/blob/main/110.png?raw=true",
  "kakao": "https://place.map.kakao.com/m/12808087?referrer=daumsearch_local",
  "naver": "https://m.place.naver.com/place/13501035/home?entry=pll"
 },
 {
  "id": 111,
  "name": "창신자동차운전전문학원 ",
  "phone": "055-752-9555",
  "address": "경상남도 진주시 대신로 196번길 20 (상평동) ",
  "type": "1,2종보통",
  "lng": 128.119636,
  "lat": 35.1776173,
  "image": "https://github.com/dbswhdaks/academy_image/blob/main/111.png?raw=true",
  "kakao": "https://place.map.kakao.com/m/18239026?referrer=daumsearch_local",
  "naver": "https://m.place.naver.com/place/13501034/home?entry=pll"
 },
 {
  "id": 112,
  "name": "창녕자동차운전전문학원 ",
  "phone": "055-533-6900",
  "address": "경상남도 창녕군 창녕읍 탐하로 254 (탐하리) ",
  "type": "1,2종보통",
  "lng": 128.49563,
  "lat": 35.5333032,
  "image": "https://github.com/dbswhdaks/academy_image/blob/main/112.png?raw=true",
  "kakao": "https://place.map.kakao.com/m/10767459?referrer=daumsearch_local",
  "naver": "https://m.place.naver.com/place/13501038/home?entry=pll"
 },
 {
  "id": 113,
  "name": "동창원자동차운전전문학원 ",
  "phone": "055-251-5004",
  "address": "경상남도 창원시 의창구 동읍 동읍로 234-1 ",
  "type": "1,2종보통,1종대형,대형견인차,2종소형(원동기)",
  "homepage": "http://www.bestdrive.co.kr",
  "lng": 128.674261,
  "lat": 35.2960986,
  "image": "https://github.com/dbswhdaks/academy_image/blob/main/113.png?raw=true",
  "kakao": "https://place.map.kakao.com/m/18818351?referrer=daumsearch_local",
  "naver": "https://m.place.naver.com/place/31752114/home?entry=pll"
 },
 {
  "id": 114,
  "name": "마창자동차운전전문학원 ",
  "phone": "055-291-8383",
  "address": "경상남도 창원시 의창구 팔용로 315 (반계동) ",
  "type": "1,2종보통,1종대형",
  "homepage": "http://www.machangcar.co.kr",
  "lng": 128.605144,
  "lat": 35.2483332,
  "image": "https://github.com/dbswhdaks/academy_image/blob/main/114.png?raw=true",
  "kakao": "https://place.map.kakao.com/m/10257599?referrer=daumsearch_local",
  "naver": "https://m.place.naver.com/place/11545967/home?entry=pll"
 },
 {
  "id": 115,
  "name": "부림자동차운전전문학원 ",
  "phone": "055-271-7900",
  "address": "경상남도 창원시 마산합포구 진북면 진북산업로 142 (망곡리) ",
  "type": "1,2종보통,1종대형,2종소형(원동기)",
  "homepage": "http://www.burimdrive.com",
  "lng": 128.486923,
  "lat": 35.1290212,
  "image": "https://github.com/dbswhdaks/academy_image/blob/main/115.png?raw=true",
  "kakao": "https://place.map.kakao.com/m/9034646?referrer=daumsearch_local",
  "naver": "https://m.place.naver.com/place/12279196/home?entry=pll"
 },
 {
  "id": 116,
  "name": "부성자동차운전전문학원 ",
  "phone": "055-551-9996",
  "address": "경상남도 창원시 진해구 어은로 32 (죽곡동) ",
  "type": "1,2종보통",
  "homepage": "http://www.bsdrive.co.kr",
  "lng": 128.728568,
  "lat": 35.1143363,
  "image": "https://github.com/dbswhdaks/academy_image/blob/main/116.png?raw=true",
  "kakao": "https://place.map.kakao.com/m/1166041454?referrer=daumsearch_local",
  "naver": "https://m.place.naver.com/place/37198335/home?entry=pll"
 },
 {
  "id": 117,
  "name": "뉴창원자동차운전전문학원 ",
  "phone": "055-237-7070",
  "address": "경남 창원시 마산합포구 가포신항남로 43",
  "type": "1,2종보통,1종대형",
  "homepage": "http://www.changwoncar.co.kr",
  "lng": 128.577008,
  "lat": 35.162509,
  "image": "https://github.com/dbswhdaks/academy_image/blob/main/117.png?raw=true",
  "kakao": "https://place.map.kakao.com/m/1545572967?referrer=daumsearch_local",
  "naver": "https://m.place.naver.com/place/11600861/home?entry=pll"
 },
 {
  "id": 118,
  "name": "한백자동차운전전문학원 ",
  "phone": "055-271-1500",
  "address": "경상남도 창원시 마산합포구 진동면 삼진의거대로 830 (교동리) ",
  "type": "1,2종보통,1종대형",
  "homepage": "http://www.hanbaekcar.co.kr",
  "lng": 128.501692,
  "lat": 35.1280101,
  "image": "https://github.com/dbswhdaks/academy_image/blob/main/118.png?raw=true",
  "kakao": "https://place.map.kakao.com/m/10938980?referrer=daumsearch_local",
  "naver": "https://m.place.naver.com/place/12991215/home?entry=pll"
 },
 {
  "id": 119,
  "name": "신세계자동차운전전문학원 ",
  "phone": "055-641-6800",
  "address": "경상남도 통영시 광도면 남해안대로 1160-60 (노산리) ",
  "type": "1,2종보통,1종대형,2종소형(원동기)",
  "lng": 128.417263,
  "lat": 34.8952247,
  "image": "https://github.com/dbswhdaks/academy_image/blob/main/119.png?raw=true",
  "kakao": "https://place.map.kakao.com/m/9198179?referrer=daumsearch_local",
  "naver": "https://m.place.naver.com/place/12928497/home?entry=pll"
 },
 {
  "id": 120,
  "name": "한려자동차운전전문학원  ",
  "phone": "055-649-0211",
  "address": "경상남도 통영시 광도면 남해안대로 1130-19 (노산리) ",
  "type": "1,2종보통",
  "lng": 128.417136,
  "lat": 34.8935227,
  "image": "https://github.com/dbswhdaks/academy_image/blob/main/120.png?raw=true",
  "kakao": "https://place.map.kakao.com/m/8594936?referrer=daumsearch_local",
  "naver": "https://m.place.naver.com/place/13501036/home?entry=pll"
 },
 {
  "id": 121,
  "name": "하동자동차운전전문학원 ",
  "phone": "055-883-8811",
  "address": "경상남도 하동군 하동읍 화심길 116 (화심리) ",
  "type": "1,2종보통",
  "lng": 127.733487,
  "lat": 35.0877295,
  "image": "https://github.com/dbswhdaks/academy_image/blob/main/121.png?raw=true",
  "kakao": "https://place.map.kakao.com/m/1684533256?referrer=daumsearch_local",
  "naver": "https://m.place.naver.com/place/13501048/home?entry=pll"
 },
 {
  "id": 122,
  "name": "함양자동차운전전문학원 ",
  "phone": "055-962-3241",
  "address": "경상남도 함양군 함양읍 함양남서로 996-11 (이은리) ",
  "type": "1,2종보통,1종대형,대형견인차,구난차,2종소형(원동기)",
  "homepage": "http://hydrive.kr",
  "lng": 127.738664,
  "lat": 35.508528,
  "image": "https://github.com/dbswhdaks/academy_image/blob/main/122.png?raw=true",
  "kakao": "https://place.map.kakao.com/m/10055608?referrer=daumsearch_local",
  "naver": "https://m.place.naver.com/place/13501033/home?entry=pll"
 },
 {
  "id": 123,
  "name": "남부자동차운전전문학원 ",
  "phone": "053-811-1101",
  "address": "경상북도 경산시 중방로 124 (계양동) ",
  "type": "1,2종보통",
  "homepage": "http://tgnambu.co.kr/",
  "lng": 128.746925,
  "lat": 35.8327017,
  "image": "https://github.com/dbswhdaks/academy_image/blob/main/123.png?raw=true",
  "kakao": "https://place.map.kakao.com/m/8243917?referrer=daumsearch_local",
  "naver": "https://m.place.naver.com/place/13441080/home?entry=pll"
 },
 {
  "id": 124,
  "name": "수성자동차운전전문학원 ",
  "phone": "053-818-4000",
  "address": "경상북도 경산시 임당로 106 (임당동) ",
  "type": "1,2종보통,1종대형,2종소형(원동기)",
  "homepage": "http://www.scar.co.kr",
  "lng": 128.745651,
  "lat": 35.8452818,
  "image": "https://github.com/dbswhdaks/academy_image/blob/main/124.png?raw=true",
  "kakao": "https://place.map.kakao.com/m/1200995889?referrer=daumsearch_local",
  "naver": "https://m.place.naver.com/place/19542468/home?entry=pll"
 },
 {
  "id": 125,
  "name": "쌍용자동차운전전문학원 ",
  "phone": "053-854-2800",
  "address": "경상북도 경산시 진량읍 대학로 1333 (부기리) ",
  "type": "1,2종보통,1종대형",
  "homepage": "http://www.ssy280.com",
  "lng": 128.822365,
  "lat": 35.8977141,
  "image": "https://github.com/dbswhdaks/academy_image/blob/main/125.png?raw=true",
  "kakao": "https://place.map.kakao.com/m/9909020?referrer=daumsearch_local",
  "naver": "https://m.place.naver.com/place/13500986/home?entry=pll"
 },
 {
  "id": 126,
  "name": "하양자동차운전전문학원 ",
  "phone": "053-851-5900",
  "address": "경상북도 경산시 진량읍 금호강변로 860 (부기리) ",
  "type": "1,2종보통",
  "homepage": "http://www.hayangcar.co.kr",
  "lng": 128.825103,
  "lat": 35.9074584,
  "image": "https://github.com/dbswhdaks/academy_image/blob/main/126.png?raw=true",
  "kakao": "https://place.map.kakao.com/m/8125186?referrer=daumsearch_local",
  "naver": "https://m.place.naver.com/place/13500995/home?entry=pll"
 },
 {
  "id": 127,
  "name": "경주자동차운전전문학원 ",
  "phone": "054-761-3001",
  "address": "경상북도 경주시 안강읍 새안현로 1144 (강교리) ",
  "type": "1,2종보통,1종대형,구난차",
  "homepage": "http://www.bestdrive.ne.kr",
  "lng": 129.137202,
  "lat": 35.9685107,
  "image": "https://github.com/dbswhdaks/academy_image/blob/main/127.png?raw=true",
  "kakao": "https://place.map.kakao.com/m/18367077?referrer=daumsearch_local",
  "naver": "https://m.place.naver.com/place/1053287336/home?entry=pll"
 },
 {
  "id": 128,
  "name": "제일자동차운전전문학원 ",
  "phone": "054-773-3500",
  "address": "경상북도 경주시 천북면 산업로 4566-21 (신당리) ",
  "type": "1,2종보통",
  "lng": 129.235486,
  "lat": 35.8847632,
  "image": "https://github.com/dbswhdaks/academy_image/blob/main/128.png?raw=true",
  "kakao": "https://place.map.kakao.com/m/19886237?referrer=daumsearch_local",
  "naver": "https://m.place.naver.com/place/13501024/home?entry=pll"
 },
 {
  "id": 129,
  "name": "천마자동차운전전문학원 ",
  "phone": "054-774-1234",
  "address": "경상북도 경주시 광중길 14 (용강동) ",
  "type": "1,2종보통,1종대형",
  "lng": 129.225412,
  "lat": 35.8796702,
  "image": "https://github.com/dbswhdaks/academy_image/blob/main/129.png?raw=true",
  "kakao": "https://place.map.kakao.com/m/10848305?referrer=daumsearch_local",
  "naver": "https://m.place.naver.com/place/13501025/home?entry=pll"
 },
 {
  "id": 130,
  "name": "현대자동차운전전문학원 ",
  "phone": "054-745-8383",
  "address": "경상북도 경주시 현곡면 용담로 413-3 (하구리) ",
  "type": "1,2종보통,1종대형",
  "homepage": "http://www.hddriver.co.kr",
  "lng": 129.18351,
  "lat": 35.8806193,
  "image": "https://github.com/dbswhdaks/academy_image/blob/main/130.png?raw=true",
  "kakao": "https://place.map.kakao.com/m/10163269?referrer=daumsearch_local",
  "naver": "https://m.place.naver.com/place/762011123/home?entry=pll"
 },
 {
  "id": 131,
  "name": "공단자동차운전전문학원 ",
  "phone": "054-472-7007",
  "address": "경상북도 구미시 옥계2공단로 238 (구포동) ",
  "type": "1,2종보통,1종대형",
  "homepage": "http://www.gd7007.kr",
  "lng": 128.415398,
  "lat": 36.1256972,
  "image": "https://github.com/dbswhdaks/academy_image/blob/main/131.png?raw=true",
  "kakao": "https://place.map.kakao.com/m/8707236?referrer=daumsearch_local",
  "naver": "https://m.place.naver.com/place/13501017/home?entry=pll"
 },
 {
  "id": 132,
  "name": "구미자동차운전전문학원 ",
  "phone": "054-452-1188",
  "address": "경상북도 구미시 고아읍 선산대로 468 (송림리) ",
  "type": "1,2종보통",
  "homepage": "http://www.gmcar.kr",
  "lng": 128.354807,
  "lat": 36.1709671,
  "image": "https://github.com/dbswhdaks/academy_image/blob/main/132.png?raw=true",
  "kakao": "https://place.map.kakao.com/m/727485102?referrer=daumsearch_local",
  "naver": "https://m.place.naver.com/place/13500987/home?entry=pll"
 },
 {
  "id": 133,
  "name": "남구미자동차운전전문학원 ",
  "phone": "054-464-5522",
  "address": "경상북도 구미시 오태1길 74 (오태동) ",
  "type": "1,2종보통,1종대형,2종소형(원동기)",
  "lng": 128.35622,
  "lat": 36.0786121,
  "image": "https://github.com/dbswhdaks/academy_image/blob/main/133.png?raw=true",
  "kakao": "https://place.map.kakao.com/m/8248889?referrer=daumsearch_local",
  "naver": "https://m.place.naver.com/place/13501014/home?entry=pll"
 },
 {
  "id": 134,
  "name": "인동자동차운전전문학원 ",
  "phone": "054-475-7000",
  "address": "경상북도 구미시 인동가산로 384-26 (구평동) ",
  "type": "1,2종보통",
  "homepage": "http://www.indongcar.co.kr",
  "lng": 128.45273,
  "lat": 36.0900618,
  "image": "https://github.com/dbswhdaks/academy_image/blob/main/134.png?raw=true",
  "kakao": "https://place.map.kakao.com/m/8053056?referrer=daumsearch_local",
  "naver": "https://m.place.naver.com/place/13501010/home?entry=pll"
 },
 {
  "id": 135,
  "name": "최신자동차운전전문학원 ",
  "phone": "054-443-8282",
  "address": "경상북도 구미시 고아읍 원대로9길 11 (원호리) ",
  "type": "1,2종보통,1종대형",
  "lng": 128.320597,
  "lat": 36.168231,
  "image": "https://github.com/dbswhdaks/academy_image/blob/main/135.png?raw=true",
  "kakao": "https://place.map.kakao.com/m/9509030?referrer=daumsearch_local",
  "naver": "https://m.place.naver.com/place/13500985/home?entry=pll"
 },
 {
  "id": 136,
  "name": "김천현대자동차운전전문학원 ",
  "phone": "054- 432-3355",
  "address": "경북 김천시 문안정길 152",
  "type": "1,2종보통,1종대형",
  "homepage": "http://www.hdcar.co.kr",
  "lng": 128.118055,
  "lat": 36.1381294,
  "image": "https://github.com/dbswhdaks/academy_image/blob/main/136.png?raw=true",
  "kakao": "https://place.map.kakao.com/m/17112841?referrer=daumsearch_local",
  "naver": "https://m.place.naver.com/place/1491729304/home?entry=pll"
 },
 {
  "id": 137,
  "name": "중앙자동차운전전문학원 ",
  "phone": "054-442-7900",
  "address": "경상북도 김천시 아포읍 송선로 140 (송천리) ",
  "type": "1,2종보통,1종대형,대형견인차,소형견인차,2종소형(원동기)",
  "homepage": "http://중앙자동차운전전문학원.com",
  "lng": 128.285929,
  "lat": 36.1475305,
  "image": "https://github.com/dbswhdaks/academy_image/blob/main/137.png?raw=true",
  "kakao": "https://place.map.kakao.com/m/11273770?referrer=daumsearch_local",
  "naver": "https://m.place.naver.com/place/13500988/home?entry=pll"
 },
 {
  "id": 138,
  "name": "영강자동차운전전문학원 ",
  "phone": "054-553-0057",
  "address": "경상북도 문경시 산양면 중앙로 360-8 (반곡리) ",
  "type": "1,2종보통",
  "lng": 128.215334,
  "lat": 36.6115818,
  "image": "https://github.com/dbswhdaks/academy_image/blob/main/138.png?raw=true",
  "kakao": "https://place.map.kakao.com/m/11420644?referrer=daumsearch_local",
  "naver": "https://m.place.naver.com/place/13500991/home?entry=pll"
 },
 {
  "id": 139,
  "name": "봉화자동차운전전문학원 ",
  "phone": "054-673-7777",
  "address": "경상북도 봉화군 봉화읍 봉화로 1001-29 (해저리) ",
  "type": "1,2종보통",
  "lng": 128.720378,
  "lat": 36.8941086,
  "image": "https://github.com/dbswhdaks/academy_image/blob/main/139.png?raw=true",
  "kakao": "https://place.map.kakao.com/m/10464434?referrer=daumsearch_local",
  "naver": "https://m.place.naver.com/place/13501002/home?entry=pll"
 },
 {
  "id": 140,
  "name": "상주새한일자동차운전전문학원 ",
  "phone": "054-533-9988",
  "address": "경상북도 상주시 경상대로 2725 (가장동) ",
  "type": "1,2종보통",
  "lng": 128.151225,
  "lat": 36.3906825,
  "image": "https://github.com/dbswhdaks/academy_image/blob/main/140.png?raw=true",
  "kakao": "https://place.map.kakao.com/m/1592423372?referrer=daumsearch_local",
  "naver": "https://m.place.naver.com/place/13501001/home?entry=pll"
 },
 {
  "id": 141,
  "name": "새한자동차운전전문학원 ",
  "phone": "054-858-5896",
  "address": "경상북도 안동시 강남로 108 (수상동) ",
  "type": "1,2종보통,1종대형,대형견인차,2종소형(원동기)",
  "homepage": "http://www.shdrive.kr",
  "lng": 128.713096,
  "lat": 36.5501567,
  "image": "https://github.com/dbswhdaks/academy_image/blob/main/141.png?raw=true",
  "kakao": "https://place.map.kakao.com/m/11136177?referrer=daumsearch_local",
  "naver": "https://m.place.naver.com/place/13500992/home?entry=pll"
 },
 {
  "id": 142,
  "name": "옥동현대자동차운전전문학원 ",
  "phone": "054-857-5588",
  "address": "경상북도 안동시 은행나무로 46-29 (옥동) ",
  "type": "1,2종보통",
  "homepage": "http://www.odcar.net",
  "lng": 128.689365,
  "lat": 36.5655152,
  "image": "https://github.com/dbswhdaks/academy_image/blob/main/142.png?raw=true",
  "kakao": "https://place.map.kakao.com/m/11686966?referrer=daumsearch_local",
  "naver": "https://m.place.naver.com/place/13501022/home?entry=pll"
 },
 {
  "id": 144,
  "name": "영덕진성자동차운전전문학원 ",
  "phone": "054-734-2802",
  "address": "경상북도 영덕군 영덕읍 남산길 22-6 (남산리) ",
  "type": "1,2종보통",
  "lng": 129.371549,
  "lat": 36.4018154,
  "image": "https://github.com/dbswhdaks/academy_image/blob/main/143.png?raw=true",
  "kakao": "https://place.map.kakao.com/m/8410532?referrer=daumsearch_local",
  "naver": "https://m.place.naver.com/place/13500999/home?entry=pll"
 },
 {
  "id": 145,
  "name": "대영자동차운전전문학원 ",
  "phone": "054-636-9188",
  "address": "경상북도 영주시 영봉로 35-15 (휴천동) ",
  "type": "1,2종보통,1종대형",
  "lng": 128.639787,
  "lat": 36.8182665,
  "image": "https://github.com/dbswhdaks/academy_image/blob/main/144.png?raw=true",
  "kakao": "https://place.map.kakao.com/m/9711918?referrer=daumsearch_local",
  "naver": "https://m.place.naver.com/place/13500996/home?entry=pll"
 },
 {
  "id": 146,
  "name": "영남자동차운전전문학원 ",
  "phone": "054-636-8318",
  "address": "경상북도 영주시 조암로 89 (조암동) ",
  "type": "1,2종보통",
  "lng": 128.636352,
  "lat": 36.796915,
  "image": "https://github.com/dbswhdaks/academy_image/blob/main/145.png?raw=true",
  "kakao": "https://place.map.kakao.com/m/10651166?referrer=daumsearch_local",
  "naver": "https://m.place.naver.com/place/13500997/home?entry=pll"
 },
 {
  "id": 147,
  "name": "영주자동차운전전문학원 ",
  "phone": "054- 633-3737",
  "address": "경상북도 영주시 필두길50번길 99 (상줄동) ",
  "type": "1,2종보통,1종대형",
  "lng": 128.583443,
  "lat": 36.833635,
  "image": "https://github.com/dbswhdaks/academy_image/blob/main/146.png?raw=true",
  "kakao": "https://place.map.kakao.com/m/9320332?referrer=daumsearch_local",
  "naver": "https://m.place.naver.com/place/13500990/home?entry=pll"
 },
 {
  "id": 149,
  "name": "성림자동차운전전문학원 ",
  "phone": "054-332-7777",
  "address": "경상북도 영천시 금호읍 금호로 338-40 ",
  "type": "1,2종보통",
  "homepage": "http://www.carschool.kr/",
  "lng": 128.895511,
  "lat": 35.9375187,
  "image": "https://github.com/dbswhdaks/academy_image/blob/main/147.png?raw=true",
  "kakao": "https://place.map.kakao.com/m/10491457?referrer=daumsearch_local",
  "naver": "https://m.place.naver.com/place/35032006/home?entry=pll"
 },
 {
  "id": 150,
  "name": "현대자동차운전전문학원 ",
  "phone": "054-334-3697",
  "address": "경상북도 영천시 망정1길 80 (망정동) ",
  "type": "1,2종보통",
  "lng": 128.949776,
  "lat": 35.9783424,
  "image": "https://github.com/dbswhdaks/academy_image/blob/main/148.png?raw=true",
  "kakao": "https://place.map.kakao.com/m/11201009?referrer=daumsearch_local",
  "naver": "https://m.place.naver.com/place/13500998/home?entry=pll"
 },
 {
  "id": 151,
  "name": "예천자동차운전전문학원 ",
  "phone": "054-654-3759",
  "address": "경상북도 예천군 예천읍 도효자로 62-15 (우계리) ",
  "type": "1,2종보통",
  "lng": 128.468281,
  "lat": 36.6771525,
  "image": "https://github.com/dbswhdaks/academy_image/blob/main/149.png?raw=true",
  "kakao": "https://place.map.kakao.com/m/9314894?referrer=daumsearch_local",
  "naver": "https://m.place.naver.com/place/13500994/home?entry=pll"
 },
 {
  "id": 152,
  "name": "제일자동차운전전문학원 ",
  "phone": "054-781-7007",
  "address": "경상북도 울진군 울진읍 연지길 62 (연지리) ",
  "type": "1,2종보통",
  "lng": 129.409936,
  "lat": 36.9990415,
  "image": "https://github.com/dbswhdaks/academy_image/blob/main/150.png?raw=true",
  "kakao": "https://place.map.kakao.com/m/8409934?referrer=daumsearch_local",
  "naver": "https://m.place.naver.com/place/968367090/home?entry=pll"
 },
 {
  "id": 154,
  "name": "화양자동차운전전문학원 ",
  "phone": "054-373-7800",
  "address": "경상북도 청도군 화양읍 북문길 46 (동상리) ",
  "type": "1,2종보통",
  "lng": 128.705193,
  "lat": 35.6520997,
  "image": "https://github.com/dbswhdaks/academy_image/blob/main/151.png?raw=true",
  "kakao": "https://place.map.kakao.com/m/9636399?referrer=daumsearch_local",
  "naver": "https://m.place.naver.com/place/13501005/home?entry=pll"
 },
 {
  "id": 155,
  "name": "문화자동차운전전문학원 ",
  "phone": "054-874-3113",
  "address": "경상북도 청송군 진보면 못안길 65 (이촌리) ",
  "type": "1,2종보통",
  "homepage": "www.cooldriving.co.kr",
  "lng": 129.0308,
  "lat": 36.5359182,
  "image": "https://github.com/dbswhdaks/academy_image/blob/main/152.png?raw=true",
  "kakao": "https://place.map.kakao.com/m/9766706?referrer=daumsearch_local",
  "naver": "https://m.place.naver.com/place/13501012/home?entry=pll"
 },
 {
  "id": 156,
  "name": "왜관자동차운전전문학원 ",
  "phone": "054-973-8100",
  "address": "경상북도 칠곡군 약목면 무림4길 15-20 (무림리) ",
  "type": "1,2종보통,1종대형",
  "homepage": "http://blog.naver.com/shinyunoo",
  "lng": 128.3838,
  "lat": 36.0231114,
  "image": "https://github.com/dbswhdaks/academy_image/blob/main/153.png?raw=true",
  "kakao": "https://place.map.kakao.com/m/9486839?referrer=daumsearch_local",
  "naver": "https://m.place.naver.com/place/36878446/home?entry=pll"
 },
 {
  "id": 157,
  "name": "우리자동차운전전문학원 ",
  "phone": "054-972-7777",
  "address": "경상북도 칠곡군 북삼읍 경호천서길 72 (율2리) ",
  "type": "1,2종보통",
  "lng": 128.338655,
  "lat": 36.050883,
  "image": "https://github.com/dbswhdaks/academy_image/blob/main/154.png?raw=true",
  "kakao": "https://place.map.kakao.com/m/8362636?referrer=daumsearch_local",
  "naver": "https://m.place.naver.com/place/13501015/home?entry=pll"
 },
 {
  "id": 158,
  "name": "경포자동차운전전문학원 ",
  "phone": "054-284-9997",
  "address": "경상북도 포항시 남구 동해면 약전로115번길 69 (신정리) ",
  "type": "1,2종보통",
  "homepage": "https://blog.naver.com/kp9997",
  "lng": 129.449574,
  "lat": 35.9757048,
  "image": "https://github.com/dbswhdaks/academy_image/blob/main/155.png?raw=true",
  "kakao": "https://place.map.kakao.com/m/8647798?referrer=daumsearch_local",
  "naver": "https://m.place.naver.com/place/13501016/home?entry=pll"
 },
 {
  "id": 159,
  "name": "연화재자동차운전전문학원 ",
  "phone": "054-262-3020",
  "address": "경상북도 포항시 북구 흥해읍 새마을로 272-30 ",
  "type": "1,2종보통",
  "homepage": "http://godrive.kr",
  "lng": 129.332581,
  "lat": 36.0499715,
  "image": "https://github.com/dbswhdaks/academy_image/blob/main/156.png?raw=true",
  "kakao": "https://place.map.kakao.com/m/92196841?referrer=daumsearch_local",
  "naver": "https://m.place.naver.com/place/1932762335/home?entry=pll"
 },
 {
  "id": 160,
  "name": "포항경북자동차운전전문학원 ",
  "phone": "054-285-0888",
  "address": "경상북도 포항시 남구 연일로 143 (생지리) ",
  "type": "1,2종보통,1종대형",
  "homepage": "http://kbcar.kr",
  "lng": 129.344598,
  "lat": 35.998723,
  "image": "https://github.com/dbswhdaks/academy_image/blob/main/157.png?raw=true",
  "kakao": "https://place.map.kakao.com/m/10887178?referrer=daumsearch_local",
  "naver": "https://m.place.naver.com/place/13103293/home?entry=pll"
 },
 {
  "id": 161,
  "name": "포항현대자동차운전전문학원 ",
  "phone": "054-277-5000",
  "address": "경상북도 포항시 남구 오천읍 철강로 862 (세계리) ",
  "type": "1,2종보통",
  "homepage": "http://www.phcar.net",
  "lng": 129.419743,
  "lat": 35.9636423,
  "image": "https://github.com/dbswhdaks/academy_image/blob/main/158.png?raw=true",
  "kakao": "https://place.map.kakao.com/m/8122566?referrer=daumsearch_local",
  "naver": "https://m.place.naver.com/place/13501018/home?entry=pll"
 },
 {
  "id": 162,
  "name": "흥해경북자동차운전전문학원 ",
  "phone": "054-262-8888",
  "address": "경상북도 포항시 북구 흥해읍 덕실마을길3번길 62 (용전리) ",
  "type": "1,2종보통,1종대형,대형견인차",
  "homepage": "http://kbcar.kr",
  "lng": 129.338802,
  "lat": 36.121073,
  "image": "https://github.com/dbswhdaks/academy_image/blob/main/159.png?raw=true",
  "kakao": "https://place.map.kakao.com/m/12638098?referrer=daumsearch_local",
  "naver": "https://m.place.naver.com/place/13501023/home?entry=pll"
 },
 {
  "id": 163,
  "name": "금호자동차운전전문학원 ",
  "phone": "062-953-8400",
  "address": "광주광역시 광산구 임방울대로 612 (도천동) ",
  "type": "1,2종보통,1종대형",
  "homepage": "http://www.kumhocar.co.kr",
  "lng": 126.828385,
  "lat": 35.2117148,
  "image": "https://github.com/dbswhdaks/academy_image/blob/main/160.png?raw=true",
  "kakao": "https://place.map.kakao.com/m/8695841?referrer=daumsearch_local",
  "naver": "https://m.place.naver.com/place/1706013867/home"
 },
 {
  "id": 164,
  "name": "기아자동차운전전문학원 ",
  "phone": "062-959-7000",
  "address": "광주광역시 광산구 하남대로 127-30 ",
  "type": "1,2종보통",
  "homepage": "http://www.기아자동차운전학원.kr",
  "lng": 126.806548,
  "lat": 35.1812251,
  "image": "https://github.com/dbswhdaks/academy_image/blob/main/161.png?raw=true",
  "kakao": "https://place.map.kakao.com/m/9740856?referrer=daumsearch_local",
  "naver": "https://m.place.naver.com/place/30836422/home?entry=pll"
 },
 {
  "id": 165,
  "name": "대우자동차운전전문학원 ",
  "phone": "062-952-8000",
  "address": "광주광역시 광산구 하남지실길 46 (산정동) ",
  "type": "1,2종보통",
  "homepage": "https://daewoodriving.modoo.at/",
  "lng": 126.79849,
  "lat": 35.1677727,
  "image": "https://github.com/dbswhdaks/academy_image/blob/main/162.png?raw=true",
  "kakao": "https://m.map.kakao.com/actions/routeView?ex=126.798529787402&ey=35.1675105254784&endLoc=%EA%B4%91%EC%A3%BC%20%EA%B4%91%EC%82%B0%EA%B5%AC%20%ED%95%98%EB%82%A8%EC%A7%80%EC%8B%A4%EA%B8%B8%2046&from=total&ids=,AN33361219&service=TDAUM&inputCoordSystem=WGS84",
  "naver": "https://m.place.naver.com/place/1374927752/home?entry=pll"
 },
 {
  "id": 166,
  "name": "양동상무자동차운전전문학원 ",
  "phone": "062-943-1212",
  "address": "광주광역시 광산구 대산로 275 (양동) ",
  "type": "1,2종보통,1종대형,대형견인차,구난차",
  "homepage": "http://sangmoo.org",
  "lng": 126.659358,
  "lat": 35.1475759,
  "image": "https://github.com/dbswhdaks/academy_image/blob/main/163.png?raw=true",
  "kakao": "https://place.map.kakao.com/m/18648614?referrer=daumsearch_local",
  "naver": "https://m.place.naver.com/place/12789634/home?entry=pll"
 },
 {
  "id": 167,
  "name": "영진자동차운전전문학원 ",
  "phone": "062-951-5100",
  "address": "광주광역시 광산구 목련로 372-19 (신가동) ",
  "type": "1,2종보통,1종대형,대형견인차,2종소형(원동기)",
  "homepage": "http://www.yjcdrive.co.kr",
  "lng": 126.834434,
  "lat": 35.1808251,
  "image": "https://github.com/dbswhdaks/academy_image/blob/main/164.png?raw=true",
  "kakao": "https://place.map.kakao.com/m/8385867?referrer=daumsearch_local",
  "naver": "https://m.place.naver.com/place/13500775/home?entry=pll"
 },
 {
  "id": 168,
  "name": "용성자동차운전전문학원 ",
  "phone": "062-943-8101",
  "address": "광주광역시 광산구 양동길 50-8 (양동)  ",
  "type": "1,2종보통,1종대형",
  "homepage": "http://www.ys-academy.com",
  "lng": 126.660328,
  "lat": 35.1543478,
  "image": "https://github.com/dbswhdaks/academy_image/blob/main/165.png?raw=true",
  "kakao": "https://place.map.kakao.com/m/12387805?referrer=daumsearch_local",
  "naver": "https://m.place.naver.com/place/11718418/home?entry=pll"
 },
 {
  "id": 169,
  "name": "제일자동차운전전문학원 ",
  "phone": "062-954-2222",
  "address": "광주광역시 광산구 풍영정길 241-17 (신창동) ",
  "type": "1,2종보통,1종대형,소형견인차,2종소형(원동기)",
  "homepage": "http://www.jaildriving.com/",
  "lng": 126.855872,
  "lat": 35.1884691,
  "image": "https://github.com/dbswhdaks/academy_image/blob/main/166.png?raw=true",
  "kakao": "https://place.map.kakao.com/m/9996888?referrer=daumsearch_local",
  "naver": "https://m.place.naver.com/place/13501068/home?entry=pll"
 },
 {
  "id": 170,
  "name": "OK자동차운전전문학원 ",
  "phone": "062-675-7100",
  "address": "광주광역시 남구 송암로130번길 7 (송하동) ",
  "type": "1,2종보통,1종대형",
  "homepage": "http://www.okcardrive.co.kr",
  "lng": 126.870373,
  "lat": 35.1151605,
  "image": "https://github.com/dbswhdaks/academy_image/blob/main/167.png?raw=true",
  "kakao": "https://place.map.kakao.com/m/10639505?referrer=daumsearch_local",
  "naver": "https://m.place.naver.com/place/13125365/home?entry=pll"
 },
 {
  "id": 171,
  "name": "한국자동차운전전문학원 ",
  "phone": "062-674-1600",
  "address": "광주광역시 남구 서문대로 541 (송하동) ",
  "type": "1,2종보통",
  "homepage": "http://blog.naver.com/hankuk1901",
  "lng": 126.88996,
  "lat": 35.1106553,
  "image": "https://github.com/dbswhdaks/academy_image/blob/main/168.png?raw=true",
  "kakao": "https://place.map.kakao.com/m/10005366?referrer=daumsearch_local",
  "naver": "https://m.place.naver.com/place/13501072/home?entry=pll"
 },
 {
  "id": 172,
  "name": "신진자동차운전전문학원 ",
  "phone": "062-234-4343",
  "address": "광주광역시 동구 소태길 78 (소태동) ",
  "type": "1,2종보통",
  "homepage": "http://cafe.naver.com/kjsinjin",
  "lng": 126.941354,
  "lat": 35.1204444,
  "image": "https://github.com/dbswhdaks/academy_image/blob/main/169.png?raw=true",
  "kakao": "https://place.map.kakao.com/m/10612085?referrer=daumsearch_local",
  "naver": "https://m.place.naver.com/place/13501069/home?entry=pll"
 },
 {
  "id": 173,
  "name": "대성자동차운전전문학원 ",
  "phone": "062-513-6500",
  "address": "광주광역시 북구 동운로32번길 20 (동림동) ",
  "type": "1,2종보통,1종대형",
  "homepage": "http://www.dsdl.or.kr",
  "lng": 126.857012,
  "lat": 35.1775551,
  "image": "https://github.com/dbswhdaks/academy_image/blob/main/170.png?raw=true",
  "kakao": "https://place.map.kakao.com/m/12591887?referrer=daumsearch_local",
  "naver": "https://m.place.naver.com/place/13375399/home?entry=pll"
 },
 {
  "id": 174,
  "name": "일곡금호자동차운전전문학원 ",
  "phone": "062-576-9400",
  "address": "광주광역시 북구 모룡대길 26 (일곡동) ",
  "type": "1,2종보통",
  "homepage": "http://www.igkumhocar.co.kr",
  "lng": 126.898052,
  "lat": 35.2171032,
  "image": "https://github.com/dbswhdaks/academy_image/blob/main/171.png?raw=true",
  "kakao": "https://place.map.kakao.com/m/8054048?referrer=daumsearch_local",
  "naver": "https://m.place.naver.com/place/1131222975/home?entry=pll"
 },
 {
  "id": 175,
  "name": "상무자동차운전전문학원 ",
  "phone": "062-606-7114",
  "address": "광주 서구 하남대로550번길 19-27",
  "type": "1,2종보통,1종대형,소형견인차",
  "homepage": "http://sangmoo.org",
  "lng": 126.853034,
  "lat": 35.173332,
  "image": "https://github.com/dbswhdaks/academy_image/blob/main/172.png?raw=true",
  "kakao": "https://place.map.kakao.com/m/8359185?referrer=daumsearch_local",
  "naver": "https://m.place.naver.com/place/11682004/home?entry=pll"
 },
 {
  "id": 176,
  "name": "고려자동차운전전문학원 ",
  "phone": "053-633-7777",
  "address": "대구광역시 달서구 상화로 116 (대곡동) ",
  "type": "1,2종보통,1종대형",
  "homepage": "https://www.korda.co.kr",
  "lng": 128.527093,
  "lat": 35.808209,
  "image": "https://github.com/dbswhdaks/academy_image/blob/main/173.png?raw=true",
  "kakao": "https://place.map.kakao.com/m/16975425?referrer=daumsearch_local",
  "naver": "https://m.place.naver.com/place/37254004/home?entry=pll"
 },
 {
  "id": 177,
  "name": "성당자동차운전전문학원 ",
  "phone": "053-563-4000",
  "address": "대구광역시 달서구 와룡로33길 51",
  "type": "1,2종보통",
  "homepage": "http://www.sungdang.co.kr",
  "lng": 128.531392,
  "lat": 35.8471562,
  "image": "https://github.com/dbswhdaks/academy_image/blob/main/174.png?raw=true",
  "kakao": "https://place.map.kakao.com/m/14864903?referrer=daumsearch_local",
  "naver": "https://m.place.naver.com/place/36721341/home?entry=pll"
 },
 {
  "id": 178,
  "name": "남대구자동차운전전문학원 ",
  "phone": "053-611-9900",
  "address": "대구광역시 달성군 현풍면 비슬로 738 (성하리) ",
  "type": "1,2종보통,1종대형",
  "homepage": "http://www.ndcar.co.kr",
  "lng": 128.440171,
  "lat": 35.7031767,
  "image": "https://github.com/dbswhdaks/academy_image/blob/main/175.png?raw=true",
  "kakao": "https://place.map.kakao.com/m/10182395?referrer=daumsearch_local",
  "naver": "https://m.place.naver.com/place/13501058/home?entry=pll"
 },
 {
  "id": 179,
  "name": "푸른자동차운전전문학원 ",
  "phone": "053-587-6600",
  "address": "대구광역시 달성군 다사읍 서재로12길 53 ",
  "type": "1,2종보통,1종대형",
  "homepage": "http://www.gobluecar.co.kr/",
  "lng": 128.492446,
  "lat": 35.8656779,
  "image": "https://github.com/dbswhdaks/academy_image/blob/main/176.png?raw=true",
  "kakao": "https://place.map.kakao.com/m/11808174?referrer=daumsearch_local",
  "naver": "https://m.place.naver.com/place/13500828/home?entry=pll"
 },
 {
  "id": 180,
  "name": "동양자동차운전전문학원 ",
  "phone": "053-314-8888",
  "address": "대구광역시 북구 매천로2길 58-52 (팔달동) ",
  "type": "1,2종보통,1종대형,대형견인차,2종소형(원동기)",
  "homepage": "http://zst.kr",
  "lng": 128.545952,
  "lat": 35.895893,
  "image": "https://github.com/dbswhdaks/academy_image/blob/main/177.png?raw=true",
  "kakao": "https://place.map.kakao.com/m/7854488?referrer=daumsearch_local",
  "naver": "https://m.place.naver.com/place/21613236/home?entry=pll"
 },
 {
  "id": 181,
  "name": "안전자동차운전전문학원 ",
  "phone": "053-956-1515",
  "address": "대구광역시 북구 복현로8길 35 (복현동)  ",
  "type": "1,2종보통",
  "homepage": "http://www.mysafety.co.kr",
  "lng": 128.626324,
  "lat": 35.8959676,
  "image": "https://github.com/dbswhdaks/academy_image/blob/main/178.png?raw=true",
  "kakao": "https://place.map.kakao.com/m/8429523?referrer=daumsearch_local",
  "naver": "https://m.place.naver.com/place/645468533/home?entry=pll"
 },
 {
  "id": 182,
  "name": "청구자동차운전전문학원 ",
  "phone": "053-382-9999",
  "address": "대구광역시 북구 검단로 166 (검단동) ",
  "type": "1,2종보통",
  "homepage": "http://www.ckcar.co.kr",
  "lng": 128.624456,
  "lat": 35.9096901,
  "image": "https://github.com/dbswhdaks/academy_image/blob/main/179.png?raw=true",
  "kakao": "https://place.map.kakao.com/m/11901763?referrer=daumsearch_local",
  "naver": "https://m.place.naver.com/place/13501056/home?entry=pll"
 },
 {
  "id": 183,
  "name": "서대구자동차운전전문학원 ",
  "phone": "053-573-9000",
  "address": "대구광역시 서구 와룡로 98길 3  ",
  "type": "1,2종보통",
  "homepage": "http://www.sddriving.com/",
  "lng": 128.53997,
  "lat": 35.8763789,
  "image": "https://github.com/dbswhdaks/academy_image/blob/main/180.png?raw=true",
  "kakao": "https://place.map.kakao.com/m/691510532?referrer=daumsearch_local",
  "naver": "https://m.place.naver.com/place/532893808/home?entry=pll"
 },
 {
  "id": 185,
  "name": "삼우동서자동차운전전문학원 ",
  "phone": "053-793-4404",
  "address": "대구광역시 수성구 달구벌대로 3289-7 ",
  "type": "1,2종보통",
  "homepage": "http://www.samwoodongseocar.co.kr/index.php",
  "lng": 128.71651,
  "lat": 35.8380869,
  "image": "https://github.com/dbswhdaks/academy_image/blob/main/181.png?raw=true",
  "kakao": "https://place.map.kakao.com/m/8974386?referrer=daumsearch_local",
  "naver": "https://m.place.naver.com/place/13500839/home?entry=pll"
 },
 {
  "id": 186,
  "name": "신탄자동차운전전문학원 ",
  "phone": "042-934-9000",
  "address": "대전광역시 대덕구 신탄진로738번길 121",
  "type": "1,2종보통",
  "homepage": "http://www.shintancar.co.kr",
  "lng": 127.43314,
  "lat": 36.4414681,
  "image": "https://github.com/dbswhdaks/academy_image/blob/main/182.png?raw=true",
  "kakao": "https://place.map.kakao.com/m/16126437?referrer=daumsearch_local",
  "naver": "https://m.place.naver.com/place/11577676/home?entry=pll"
 },
 {
  "id": 187,
  "name": "문화자동차운전전문학원 ",
  "phone": "042-284-3399",
  "address": "대전광역시 동구 용운로151번길 85 (용운동) ",
  "type": "1,2종보통,1종대형",
  "homepage": "http://www.cooldriving.co.kr",
  "lng": 127.461234,
  "lat": 36.3316108,
  "image": "https://github.com/dbswhdaks/academy_image/blob/main/183.png?raw=true",
  "kakao": "https://place.map.kakao.com/m/7872728?referrer=daumsearch_local",
  "naver": "https://m.place.naver.com/place/597076526/home?entry=pll"
 },
 {
  "id": 188,
  "name": "흥일자동차운전전문학원 ",
  "phone": "042-271-6688",
  "address": "대전광역시 동구 산서로1660번길 24 ",
  "type": "1,2종보통,1종대형,소형견인차,2종소형(원동기)",
  "homepage": "www.hidrive.co.kr",
  "lng": 127.462362,
  "lat": 36.2886565,
  "image": "https://github.com/dbswhdaks/academy_image/blob/main/184.png?raw=true",
  "kakao": "https://place.map.kakao.com/m/10031261?referrer=daumsearch_local",
  "naver": "https://m.place.naver.com/place/13500825/home?entry=pll"
 },
 {
  "id": 189,
  "name": "향우자동차운전전문학원 ",
  "phone": "042-584-6116",
  "address": "대전광역시 서구 구봉로 456 (정림동) ",
  "type": "1,2종보통,2종소형(원동기)",
  "homepage": "http://hyangwoo.kr/",
  "lng": 127.369218,
  "lat": 36.3012804,
  "image": "https://github.com/dbswhdaks/academy_image/blob/main/185.png?raw=true",
  "kakao": "https://place.map.kakao.com/m/1791699502?referrer=daumsearch_local",
  "naver": "https://m.place.naver.com/place/1298855155/home?entry=pll"
 },
 {
  "id": 190,
  "name": "효성자동차운전전문학원 ",
  "phone": "042-546-8000",
  "address": "대전광역시 서구 벌곡로1384번길 38 (가수원동) ",
  "type": "1,2종보통,1종대형,2종소형(원동기)",
  "homepage": "http://www.hsdrive.com",
  "lng": 127.356371,
  "lat": 36.3039417,
  "image": "https://github.com/dbswhdaks/academy_image/blob/main/186.png?raw=true",
  "kakao": "https://place.map.kakao.com/m/8166045?referrer=daumsearch_local",
  "naver": "https://m.place.naver.com/place/12876178/home?entry=pll"
 },
 {
  "id": 191,
  "name": "대성자동차운전전문학원 ",
  "phone": "042-242-6565",
  "address": "대전광역시 중구 유등천동로 792 (증촌동) ",
  "type": "1,2종보통,1종대형",
  "homepage": "http://www.dsvc.biz",
  "lng": 127.405085,
  "lat": 36.3479626,
  "image": "https://github.com/dbswhdaks/academy_image/blob/main/187.png?raw=true",
  "kakao": "https://place.map.kakao.com/m/7823225?referrer=daumsearch_local",
  "naver": "https://m.place.naver.com/place/12816762/home?entry=pll"
 },
 {
  "id": 192,
  "name": "금사자동차운전전문학원 ",
  "phone": "051-525-2600",
  "address": "부산광역시 금정구 공단서로8번길 49 (금사동)  ",
  "type": "1,2종보통",
  "lng": 129.113247,
  "lat": 35.2164708,
  "image": "https://github.com/dbswhdaks/academy_image/blob/main/188.png?raw=true",
  "kakao": "https://place.map.kakao.com/m/440182654?referrer=daumsearch_local",
  "naver": "https://m.place.naver.com/place/13500854/home"
 },
 {
  "id": 193,
  "name": "현대자동차운전전문학원 ",
  "phone": "051-508-5111",
  "address": "부산광역시 금정구 청룡예전로 16 (청룡동) ",
  "type": "1,2종보통",
  "lng": 129.091858,
  "lat": 35.2746953,
  "image": "https://github.com/dbswhdaks/academy_image/blob/main/189.png?raw=true",
  "kakao": "https://place.map.kakao.com/m/15563222?referrer=daumsearch_local",
  "naver": "https://m.place.naver.com/place/121056229/home?entry=pll"
 },
 {
  "id": 194,
  "name": "기장아세아자동차운전전문학원 ",
  "phone": "051-728-7288",
  "address": "부산광역시 기장군 정관면 곰내길 603-33 (매학리)  ",
  "type": "1,2종보통",
  "homepage": "http://www.asiacar.co.kr/",
  "lng": 129.169731,
  "lat": 35.3170192,
  "image": "https://github.com/dbswhdaks/academy_image/blob/main/190.png?raw=true",
  "kakao": "https://place.map.kakao.com/m/16610006?referrer=daumsearch_local",
  "naver": "https://m.place.naver.com/place/13146629/home?entry=pll"
 },
 {
  "id": 195,
  "name": "동일자동차운전전문학원 ",
  "phone": "051-557-3636",
  "address": "부산광역시 동래구 수안로 58 (수안동) ",
  "type": "1,2종보통",
  "homepage": "http://www.yesdi.co.kr/",
  "lng": 129.085615,
  "lat": 35.1995397,
  "image": "https://github.com/dbswhdaks/academy_image/blob/main/191.png?raw=true",
  "kakao": "https://place.map.kakao.com/m/15099344?referrer=daumsearch_local",
  "naver": "https://m.place.naver.com/place/13500777/home?entry=pll"
 },
 {
  "id": 196,
  "name": "동호자동차운전전문학원 ",
  "phone": "051-634-5300",
  "address": "부산광역시 부산진구 황령대로17번길 30 (범천동)  ",
  "type": "1,2종보통",
  "homepage": "http://www.okdongho.co.kr/",
  "lng": 129.06116,
  "lat": 35.1493135,
  "image": "https://github.com/dbswhdaks/academy_image/blob/main/192.png?raw=true",
  "kakao": "https://place.map.kakao.com/m/9778377?referrer=daumsearch_local",
  "naver": "https://m.place.naver.com/place/13500800/home?entry=pll"
 },
 {
  "id": 197,
  "name": "서면자동차운전전문학원 ",
  "phone": "051-804-3480",
  "address": "부산광역시 부산진구 진남로356번길 56-11 (전포동) ",
  "type": "1,2종보통",
  "homepage": "http://www.sm-car.co.kr/",
  "lng": 129.073053,
  "lat": 35.158807,
  "image": "https://github.com/dbswhdaks/academy_image/blob/main/193.png?raw=true",
  "kakao": "https://place.map.kakao.com/m/9104036?referrer=daumsearch_local",
  "naver": "https://m.place.naver.com/place/11531966/home?entry=pll"
 },
 {
  "id": 198,
  "name": "영동자동차운전전문학원 ",
  "phone": "051-891-5500",
  "address": "부산광역시 부산진구 백양관문로 60 (당감동) ",
  "type": "1,2종보통,1종대형,2종소형(원동기)",
  "homepage": "http://youngcar.co.kr/board/",
  "lng": 129.030014,
  "lat": 35.1653391,
  "image": "https://github.com/dbswhdaks/academy_image/blob/main/194.png?raw=true",
  "kakao": "https://place.map.kakao.com/m/8010167?referrer=daumsearch_local",
  "naver": "https://m.place.naver.com/place/13500773/home?entry=pll"
 },
 {
  "id": 199,
  "name": "구포북부자동차운전전문학원 ",
  "phone": "051-332-4511",
  "address": "부산광역시 북구 구남로15번길 25 (구포동) ",
  "type": "1,2종보통",
  "homepage": "http://www.bbdrive.co.kr/",
  "lng": 128.992459,
  "lat": 35.1994407,
  "image": "https://github.com/dbswhdaks/academy_image/blob/main/195.png?raw=true",
  "kakao": "https://place.map.kakao.com/m/1980453179?referrer=daumsearch_local",
  "naver": "https://m.place.naver.com/place/13500856/home?entry=pll"
 },
 {
  "id": 200,
  "name": "대성자동차운전전문학원 ",
  "phone": "051-301-1900",
  "address": "부산광역시 사상구 사상로367번길 42 (덕포동) ",
  "type": "1,2종보통",
  "lng": 128.982442,
  "lat": 35.1780311,
  "image": "https://github.com/dbswhdaks/academy_image/blob/main/196.png?raw=true",
  "kakao": "https://place.map.kakao.com/m/7822731?referrer=daumsearch_local",
  "naver": "https://m.place.naver.com/place/11580924/home"
 },
 {
  "id": 201,
  "name": "대우자동차운전전문학원 ",
  "phone": "051-322-7700",
  "address": "부산광역시 사상구 학감대로192번길 1 (학장동) ",
  "type": "1,2종보통",
  "homepage": "http://www.xn--vk1b3pe66bra4lv1cjxi6verv.kr/",
  "lng": 128.989988,
  "lat": 35.1485113,
  "image": "https://github.com/dbswhdaks/academy_image/blob/main/197.png?raw=true",
  "kakao": "https://place.map.kakao.com/m/7821076?referrer=daumsearch_local",
  "naver": "https://m.place.naver.com/place/13500835/home"
 },
 {
  "id": 202,
  "name": "학장자동차운전전문학원 ",
  "phone": "051-316-3131",
  "address": "부산광역시 사상구 장인로 59 (학장동)  ",
  "type": "1,2종보통,1종대형",
  "homepage": "http://hjcar.foredu.kr/",
  "lng": 128.976265,
  "lat": 35.1436262,
  "image": "https://github.com/dbswhdaks/academy_image/blob/main/198.png?raw=true",
  "kakao": "https://place.map.kakao.com/m/10672979?referrer=daumsearch_local",
  "naver": "https://m.place.naver.com/place/20948700/home"
 },
 {
  "id": 203,
  "name": "남영자동차운전전문학원  ",
  "phone": "051-207-7965",
  "address": "부산광역시 사하구 을숙도대로 709 (신평동) ",
  "type": "1,2종보통,2종소형(원동기)",
  "homepage": "http://www.nycar.co.kr/",
  "lng": 128.982147,
  "lat": 35.0856836,
  "image": "https://github.com/dbswhdaks/academy_image/blob/main/199.png?raw=true",
  "kakao": "https://place.map.kakao.com/m/16317482?referrer=daumsearch_local",
  "naver": "https://m.place.naver.com/place/13500801/home"
 },
 {
  "id": 204,
  "name": "서부산자동차운전전문학원 ",
  "phone": "051-291-6357",
  "address": "부산광역시 사하구 낙동대로563번안길 2 (하단동) ",
  "type": "1,2종보통",
  "homepage": "http://www.wbusan.co.kr/",
  "lng": 128.962197,
  "lat": 35.1128722,
  "image": "https://github.com/dbswhdaks/academy_image/blob/main/200.png?raw=true",
  "kakao": "https://place.map.kakao.com/m/16436016?referrer=daumsearch_local",
  "naver": "https://m.place.naver.com/place/13500779/home"
 },
 {
  "id": 205,
  "name": "하이자동차운전전문학원 ",
  "phone": "051-851-0007",
  "address": "부산광역시 연제구 마곡천로 70 (연산동) ",
  "type": "1,2종보통",
  "homepage": "http://xn--zo5btn4nf45b.com/",
  "lng": 129.087015,
  "lat": 35.1680025,
  "image": "https://github.com/dbswhdaks/academy_image/blob/main/201.png?raw=true",
  "kakao": "https://place.map.kakao.com/m/282802274?referrer=daumsearch_local",
  "naver": "https://m.place.naver.com/place/15002556/home"
 },
 {
  "id": 206,
  "name": "영도자동차운전전문학원 ",
  "phone": "051-412-0500",
  "address": "부산광역시 영도구 조내기로 68 (청학동) ",
  "type": "1,2종보통",
  "lng": 129.06643,
  "lat": 35.0859983,
  "image": "https://github.com/dbswhdaks/academy_image/blob/main/202.png?raw=true",
  "kakao": "https://place.map.kakao.com/m/16575799?referrer=daumsearch_local",
  "naver": "https://m.place.naver.com/place/13500853/home"
 },
 {
  "id": 207,
  "name": "명진자동차운전전문학원 ",
  "phone": "051-746-3737",
  "address": "부산광역시 해운대구 센텀남대로 20 (우동) ",
  "type": "1,2종보통",
  "homepage": "http://www.yesmj.co.kr",
  "lng": 129.128643,
  "lat": 35.1660077,
  "image": "https://github.com/dbswhdaks/academy_image/blob/main/203.png?raw=true",
  "kakao": "https://place.map.kakao.com/m/16924349?referrer=daumsearch_local",
  "naver": "https://m.place.naver.com/place/13500855/home"
 },
 {
  "id": 208,
  "name": "흥국자동차운전전문학원 ",
  "phone": "051-731-6611",
  "address": "부산광역시 해운대구 양운로37번길 28 (중동) ",
  "type": "1,2종보통",
  "homepage": "https://cafe.daum.net/okhk.",
  "lng": 129.175623,
  "lat": 35.1660113,
  "image": "https://github.com/dbswhdaks/academy_image/blob/main/204.png?raw=true",
  "kakao": "https://place.map.kakao.com/m/11285508?referrer=daumsearch_local",
  "naver": "https://m.place.naver.com/place/13500799/home"
 },
 {
  "id": 209,
  "name": "광연자동차운전전문학원 ",
  "phone": "02-481-6000",
  "address": "서울특별시 강남구 헌릉로 733 ",
  "type": "1,2종보통,1종대형,2종소형(원동기)",
  "homepage": "http://www.kydriving.co.kr/",
  "lng": 127.109413,
  "lat": 37.466083,
  "image": "https://github.com/dbswhdaks/academy_image/blob/main/205.png?raw=true",
  "kakao": "https://place.map.kakao.com/m/10711136?referrer=daumsearch_local",
  "naver": "https://m.place.naver.com/place/20344507/home"
 },
 {
  "id": 210,
  "name": "삼일자동차운전전문학원 ",
  "phone": "02-451-3131",
  "address": "서울특별시 강남구 헌릉로 736 (세곡동) ",
  "type": "1,2종보통,1종대형,2종소형(원동기)",
  "homepage": "http://www.samilcar.co.kr/",
  "lng": 127.12013,
  "lat": 37.4669016,
  "image": "https://github.com/dbswhdaks/academy_image/blob/main/206.png?raw=true",
  "kakao": "https://place.map.kakao.com/m/9097972?referrer=daumsearch_local",
  "naver": "https://m.place.naver.com/place/11525745/home"
 },
 {
  "id": 211,
  "name": "서울자동차운전전문학원 ",
  "phone": "02-2665-5959",
  "address": "서울특별시 강서구 남부순환로 222 (외발산동)  ",
  "type": "1,2종보통,1종대형,소형견인차,2종소형(원동기)",
  "homepage": "http://www.seouldriver.co.kr/",
  "lng": 126.819651,
  "lat": 37.545686,
  "image": "https://github.com/dbswhdaks/academy_image/blob/main/207.png?raw=true",
  "kakao": "https://place.map.kakao.com/m/9106362?referrer=daumsearch_local",
  "naver": "https://m.place.naver.com/place/13500793/home"
 },
 {
  "id": 212,
  "name": "신도림자동차운전전문학원 ",
  "phone": "02-2672-8500",
  "address": "서울특별시 구로구 신도림로19길 68 ",
  "type": "1,2종보통,2종소형(원동기)",
  "homepage": "http://www.sindolim.co.kr/",
  "lng": 126.881522,
  "lat": 37.5126804,
  "image": "https://github.com/dbswhdaks/academy_image/blob/main/208.png?raw=true",
  "kakao": "https://place.map.kakao.com/m/10369817?referrer=daumsearch_local",
  "naver": "https://m.place.naver.com/place/37254235/home"
 },
 {
  "id": 213,
  "name": "온수역자동차운전전문학원 ",
  "phone": "02-2686-2031",
  "address": "서울특별시 구로구 부일로1가길 18-44 (온수동)  ",
  "type": "1,2종보통",
  "homepage": "http://www.carist.com",
  "lng": 126.818004,
  "lat": 37.4929661,
  "image": "https://github.com/dbswhdaks/academy_image/blob/main/209.png?raw=true",
  "kakao": "https://place.map.kakao.com/m/20551319?referrer=daumsearch_local",
  "naver": "https://m.place.naver.com/place/13449099/home"
 },
 {
  "id": 214,
  "name": "녹천자동차운전전문학원 ",
  "phone": "02-903-3131",
  "address": "서울특별시 노원구 마들로5길 91 (월계동)  ",
  "type": "1,2종보통",
  "homepage": "http://www.ncdrive.co.kr/",
  "lng": 127.051317,
  "lat": 37.6434011,
  "image": "https://github.com/dbswhdaks/academy_image/blob/main/210.png?raw=true",
  "kakao": "https://place.map.kakao.com/m/11657262?referrer=daumsearch_local",
  "naver": "https://m.place.naver.com/place/13500803/home"
 },
 {
  "id": 215,
  "name": "창동자동차운전전문학원 ",
  "phone": "02-907-7744",
  "address": "서울특별시 도봉구 도봉로136길 61 (창동) ",
  "type": "1,2종보통",
  "homepage": "https://hidi.co.kr/",
  "lng": 127.044188,
  "lat": 37.660126,
  "image": "https://github.com/dbswhdaks/academy_image/blob/main/211.png?raw=true",
  "kakao": "https://place.map.kakao.com/m/11657314?referrer=daumsearch_local",
  "naver": "https://m.place.naver.com/place/1006030700/home"
 },
 {
  "id": 216,
  "name": "사당자동차운전전문학원 ",
  "phone": "02-521-1637",
  "address": "서울특별시 서초구 과천대로 904-6 (방배동) ",
  "type": "1,2종보통",
  "homepage": "http://sadangdrive.com",
  "lng": 126.98403,
  "lat": 37.4716092,
  "image": "https://github.com/dbswhdaks/academy_image/blob/main/212.png?raw=true",
  "kakao": "https://place.map.kakao.com/m/8264907?referrer=daumsearch_local",
  "naver": "https://m.place.naver.com/place/36940994/home"
 },
 {
  "id": 217,
  "name": "양재자동차운전전문학원 ",
  "phone": "02-575-9500",
  "address": "서울특별시 서초구 남부순환로342길 62-26 (양재동)  ",
  "type": "1,2종보통",
  "homepage": "http://www.yangjaecar.co.kr/",
  "lng": 127.026007,
  "lat": 37.4792845,
  "image": "https://github.com/dbswhdaks/academy_image/blob/main/213.png?raw=true",
  "kakao": "https://place.map.kakao.com/m/7994062?referrer=daumsearch_local",
  "naver": "https://m.place.naver.com/place/13500778/home"
 },
 {
  "id": 219,
  "name": "신관자동차운전전문학원 ",
  "phone": "044-881-1588",
  "address": "세종특별자치시 장군면 장기초교길 76-15 (은용리) ",
  "type": "1,2종보통,1종대형",
  "homepage": "https://skdriveacademy.modoo.at",
  "lng": 127.212074,
  "lat": 36.4926268,
  "image": "https://github.com/dbswhdaks/academy_image/blob/main/214.png?raw=true",
  "kakao": "https://place.map.kakao.com/m/8406093?referrer=daumsearch_local",
  "naver": "https://m.place.naver.com/place/13500921/home"
 },
 {
  "id": 220,
  "name": "세종현대자동차운전전문학원 ",
  "phone": "044-863-5509",
  "address": "세종특별자치시 전동면 하노장5길 2 ",
  "type": "1,2종보통",
  "homepage": "http://www.sejongdriving.co.kr/",
  "lng": 127.269533,
  "lat": 36.6521122,
  "image": "https://github.com/dbswhdaks/academy_image/blob/main/215.png?raw=true",
  "kakao": "https://place.map.kakao.com/m/15880019?referrer=daumsearch_local",
  "naver": "https://m.place.naver.com/place/13380579/home"
 },
 {
  "id": 221,
  "name": "문화자동차운전전문학원 ",
  "phone": "044-863-0844",
  "address": "세종특별자치시 조치원읍 새내로 223 (서창리) ",
  "type": "1,2종보통,1종대형,대형견인차,구난차",
  "lng": 127.295246,
  "lat": 36.6113385,
  "image": "https://github.com/dbswhdaks/academy_image/blob/main/216.png?raw=true",
  "kakao": "https://place.map.kakao.com/m/10419096?referrer=daumsearch_local",
  "naver": "https://m.place.naver.com/place/13500808/home"
 },
 {
  "id": 222,
  "name": "신삼성자동차운전전문학원 ",
  "phone": "052-260-0003",
  "address": "울산광역시 남구 꽃대나리로 66 (야음동) ",
  "type": "1,2종보통,1종대형,대형견인차,2종소형(원동기)",
  "lng": 129.337033,
  "lat": 35.5329693,
  "image": "https://github.com/dbswhdaks/academy_image/blob/main/217.png?raw=true",
  "kakao": "https://place.map.kakao.com/m/7974963?referrer=daumsearch_local",
  "naver": "https://m.place.naver.com/place/1200241407/home"
 },
 {
  "id": 223,
  "name": "신정자동차운전전문학원 ",
  "phone": "052-268-3600",
  "address": "울산광역시 남구 온산로 804 (두왕동) ",
  "type": "1,2종보통",
  "homepage": "http://www.sjdriving.co.kr",
  "lng": 129.307148,
  "lat": 35.4982681,
  "image": "https://github.com/dbswhdaks/academy_image/blob/main/218.png?raw=true",
  "kakao": "https://place.map.kakao.com/m/11118774?referrer=daumsearch_local",
  "naver": "https://m.place.naver.com/place/1309268734/home"
 },
 {
  "id": 224,
  "name": "울산자동차운전전문학원 ",
  "phone": "052-287-6000",
  "address": "울산광역시 북구 효성로 48 (효문동) ",
  "type": "1,2종보통,1종대형,2종소형(원동기)",
  "lng": 129.36969,
  "lat": 35.5620575,
  "image": "https://github.com/dbswhdaks/academy_image/blob/main/219.png?raw=true",
  "kakao": "https://place.map.kakao.com/m/14877483?referrer=daumsearch_local",
  "naver": "https://m.place.naver.com/place/1294330280/home"
 },
 {
  "id": 226,
  "name": "신진자동차운전전문학원 ",
  "phone": "052-225-7700",
  "address": "울산광역시 울주군 웅촌면 웅촌로 601 (대복리) ",
  "type": "1,2종보통,1종대형",
  "homepage": "https://blog.naver.com/shinjin7700",
  "lng": 129.218494,
  "lat": 35.4807194,
  "image": "https://github.com/dbswhdaks/academy_image/blob/main/220.png?raw=true",
  "kakao": "https://place.map.kakao.com/m/12481619?referrer=daumsearch_local",
  "naver": "https://m.place.naver.com/place/1587053242/home"
 },
 {
  "id": 227,
  "name": "언양자동차운전전문학원 ",
  "phone": "052- 264-2000",
  "address": "울산광역시 울주군 언양읍 언양로 146-9 (어음리) ",
  "type": "1,2종보통,1종대형",
  "homepage": "http://0522642000.ussoft.kr/",
  "lng": 129.141488,
  "lat": 35.5549817,
  "image": "https://github.com/dbswhdaks/academy_image/blob/main/221.png?raw=true",
  "kakao": "https://place.map.kakao.com/m/11104508?referrer=daumsearch_local",
  "naver": "https://m.place.naver.com/place/13500780/home"
 },
 {
  "id": 228,
  "name": "강화자동차운전전문학원 ",
  "phone": "032-932-2176",
  "address": "인천광역시 강화군 선원면 강화동로 984 (냉정리) ",
  "type": "1,2종보통",
  "homepage": "http://강화자동차운전학원.gajagaja.co.kr",
  "lng": 126.475706,
  "lat": 37.7181828,
  "image": "https://github.com/dbswhdaks/academy_image/blob/main/222.png?raw=true",
  "kakao": "https://place.map.kakao.com/m/8738878?referrer=daumsearch_local",
  "naver": "https://m.place.naver.com/place/13501062/home"
 },
 {
  "id": 230,
  "name": "신진자동차운전전문학원 ",
  "phone": "032-543-7070",
  "address": "인천광역시 계양구 아나지로 561 (서운동) ",
  "type": "1,2종보통,1종대형,소형견인차",
  "homepage": "https://1544-3386.com/",
  "lng": 126.755622,
  "lat": 37.526388,
  "image": "https://github.com/dbswhdaks/academy_image/blob/main/223.png?raw=true",
  "kakao": "https://place.map.kakao.com/m/26796115?referrer=daumsearch_local",
  "naver": "https://m.place.naver.com/place/31689713/home"
 },
 {
  "id": 232,
  "name": "한양자동차운전전문학원 ",
  "phone": "032-507-6200",
  "address": "인천광역시 계양구 장제로 988 (박촌동) ",
  "type": "1,2종보통,1종대형,소형견인차,2종소형(원동기)",
  "homepage": "http://www.hydriver.kr",
  "lng": 126.746005,
  "lat": 37.5533162,
  "image": "https://github.com/dbswhdaks/academy_image/blob/main/224.png?raw=true",
  "kakao": "https://place.map.kakao.com/m/10166459?referrer=daumsearch_local",
  "naver": "https://m.place.naver.com/place/21048512/home"
 },
 {
  "id": 233,
  "name": "효성자동차운전전문학원 ",
  "phone": "032-551-7000",
  "address": "인천광역시 계양구 새풀로8번길 14 (효성동) ",
  "type": "1,2종보통,1종대형",
  "homepage": "http://www.5517000.com",
  "lng": 126.701363,
  "lat": 37.5241362,
  "image": "https://github.com/dbswhdaks/academy_image/blob/main/225.png?raw=true",
  "kakao": "https://place.map.kakao.com/m/11590390?referrer=daumsearch_local",
  "naver": "https://m.place.naver.com/place/21387520/home"
 },
 {
  "id": 234,
  "name": "시엘자동차운전전문학원 ",
  "phone": "032-867-7070",
  "address": "인천광역시 남구 소성로 34 (용현동) ",
  "type": "1,2종보통,1종대형,대형견인차,2종소형(원동기)",
  "homepage": "http://clds.co.kr",
  "lng": 126.652637,
  "lat": 37.446958,
  "image": "https://github.com/dbswhdaks/academy_image/blob/main/226.png?raw=true",
  "kakao": "https://place.map.kakao.com/m/11833806?referrer=daumsearch_local",
  "naver": "https://m.place.naver.com/place/13375989/home"
 },
 {
  "id": 235,
  "name": "인천자동차운전전문학원 ",
  "phone": "032-715-6111",
  "address": "인천광역시 남구 매소흘로271번길 7 (학익동) ",
  "type": "1,2종보통",
  "lng": 126.652757,
  "lat": 37.4454807,
  "image": "https://github.com/dbswhdaks/academy_image/blob/main/227.png?raw=true",
  "kakao": "https://place.map.kakao.com/m/26303317?referrer=daumsearch_local",
  "naver": "https://m.place.naver.com/place/35895922/home"
 },
 {
  "id": 236,
  "name": "동아자동차운전전문학원 ",
  "phone": "032-446-1100",
  "address": "인천광역시 남동구 청능대로 534번길 39 (고잔동) ",
  "type": "1,2종보통",
  "homepage": "http://www.dongacar.co.kr",
  "lng": 126.720465,
  "lat": 37.3986103,
  "image": "https://github.com/dbswhdaks/academy_image/blob/main/228.png?raw=true",
  "kakao": "https://place.map.kakao.com/m/9780947?referrer=daumsearch_local",
  "naver": "https://m.place.naver.com/place/13500841/home"
 },
 {
  "id": 237,
  "name": "인기자동차운전전문학원 ",
  "phone": "032-446-1199",
  "address": "인천광역시 남동구 논현고잔로88번길 19 (고잔동) ",
  "type": "1종보통, 2종보통(수동), 2종보통(자동), 2종소형, 원동기",
  "homepage": "http://inchondrive.co.kr",
  "lng": 126.713752,
  "lat": 37.3908725,
  "image": "https://github.com/dbswhdaks/academy_image/blob/main/229.png?raw=true",
  "kakao": "https://place.map.kakao.com/m/10745224?referrer=daumsearch_local",
  "naver": "https://m.place.naver.com/place/19449545/home"
 },
 {
  "id": 238,
  "name": "주신자동차운전전문학원 ",
  "phone": "032-866-7510",
  "address": "인천광역시 미추홀구 노적산로 66-36 (학익동) ",
  "type": "1,2종보통,1종대형,2종소형(원동기)",
  "homepage": "http://www.zushincar.co.kr",
  "lng": 126.655235,
  "lat": 37.4398387,
  "image": "https://github.com/dbswhdaks/academy_image/blob/main/230.png?raw=true",
  "kakao": "https://place.map.kakao.com/m/9451637?referrer=daumsearch_local",
  "naver": "https://m.place.naver.com/place/11486136/home"
 },
 {
  "id": 239,
  "name": "일신자동차운전전문학원 ",
  "phone": "032-513-1313",
  "address": "인천광역시 부평구 무네미로 522 (구산동) ",
  "type": "1,2종보통",
  "homepage": "http://www.isdrive.co.kr",
  "lng": 126.753438,
  "lat": 37.4821354,
  "image": "https://github.com/dbswhdaks/academy_image/blob/main/231.png?raw=true",
  "kakao": "https://place.map.kakao.com/m/11793664?referrer=daumsearch_local",
  "naver": "https://m.place.naver.com/place/13501059/home"
 },
 {
  "id": 240,
  "name": "대우자동차운전전문학원 ",
  "phone": "032-561-5500",
  "address": "인천광역시 서구 호두산로 28",
  "type": "1,2종보통,1종대형",
  "homepage": "http://www.dwdrive.kr",
  "lng": 126.647925,
  "lat": 37.5452158,
  "image": "https://github.com/dbswhdaks/academy_image/blob/main/232.png?raw=true",
  "kakao": "https://place.map.kakao.com/m/7819838?referrer=daumsearch_local",
  "naver": "https://m.place.naver.com/place/13444151/home"
 },
 {
  "id": 241,
  "name": "중앙자동차운전전문학원 ",
  "phone": "032-568-0881 ",
  "address": "인천광역시 서구 드림로 285(백석동) ",
  "type": "1,2종보통,1종대형,대형견인차,소형견인차,2종소형(원동기)",
  "homepage": "https://jadrive.modoo.at/",
  "lng": 126.671061,
  "lat": 37.5848181,
  "image": "https://github.com/dbswhdaks/academy_image/blob/main/233.png?raw=true",
  "kakao": "https://place.map.kakao.com/m/327771239?referrer=daumsearch_local",
  "naver": "https://m.place.naver.com/place/1671810352/home"
 },
 {
  "id": 242,
  "name": "한성자동차운전전문학원 ",
  "phone": "032-581-2222",
  "address": "인천광역시 서구 중봉대로 266 (석남동) ",
  "type": "1,2종보통,1종대형,2종소형(원동기)",
  "homepage": "http://www.hansungdrive.com",
  "lng": 126.649301,
  "lat": 37.5029002,
  "image": "https://github.com/dbswhdaks/academy_image/blob/main/234.png?raw=true",
  "kakao": "https://place.map.kakao.com/m/11942972?referrer=daumsearch_local",
  "naver": "https://m.place.naver.com/place/13490228/home"
 },
 {
  "id": 243,
  "name": "강진자동차운전전문학원 ",
  "phone": "061-433-4070",
  "address": "전라남도 강진군 성전면 송계로 629-21 (금당리) ",
  "type": "1,2종보통,1종대형",
  "homepage": "http://cafe.naver.com/4334070",
  "lng": 126.726521,
  "lat": 34.6740046,
  "image": "https://github.com/dbswhdaks/academy_image/blob/main/235.png?raw=true",
  "kakao": "https://place.map.kakao.com/m/18761574?referrer=daumsearch_local",
  "naver": "https://m.place.naver.com/place/13500973/home"
 },
 {
  "id": 244,
  "name": "고흥자동차운전전문학원?",
  "phone": "061-835-3161",
  "address": "전라남도 고흥군 고흥읍 송곡길 4-9 (남계리) ",
  "type": "1,2종보통,1종대형",
  "lng": 127.296947,
  "lat": 34.6224311,
  "image": "https://github.com/dbswhdaks/academy_image/blob/main/236.png?raw=true",
  "kakao": "https://place.map.kakao.com/m/10160064?referrer=daumsearch_local",
  "naver": "https://m.place.naver.com/place/13500969/home"
 },
 {
  "id": 245,
  "name": "천일자동차운전전문학원 ",
  "phone": "061-363-2200",
  "address": "전라남도 곡성군 곡성읍 곡고로 277 (신리) ",
  "type": "1,2종보통,1종대형",
  "homepage": "http://www.1001drive.co.kr",
  "lng": 127.324718,
  "lat": 35.2936628,
  "image": "https://github.com/dbswhdaks/academy_image/blob/main/237.png?raw=true",
  "kakao": "https://place.map.kakao.com/m/16778431?referrer=daumsearch_local",
  "naver": "https://m.place.naver.com/place/13500983/home"
 },
 {
  "id": 246,
  "name": "동광양자동차운전전문학원 ",
  "phone": "061-794-8088",
  "address": "전라남도 광양시 도이1길 89 (도이동) ",
  "type": "1,2종보통",
  "lng": 127.669941,
  "lat": 34.928854,
  "image": "https://github.com/dbswhdaks/academy_image/blob/main/238.png?raw=true",
  "kakao": "https://place.map.kakao.com/m/8675483?referrer=daumsearch_local",
  "naver": "https://m.place.naver.com/place/1257890241/home"
 },
 {
  "id": 247,
  "name": "나주자동차운전전문학원 ",
  "phone": "061-336-6611",
  "address": "전라남도 나주시 다시면 구진포로 28 (가운리) ",
  "type": "1,2종보통,1종대형",
  "homepage": "https://www.najudriving.com/",
  "lng": 126.670205,
  "lat": 35.0079942,
  "image": "https://github.com/dbswhdaks/academy_image/blob/main/239.png?raw=true",
  "kakao": "https://place.map.kakao.com/m/9731596?referrer=daumsearch_local",
  "naver": "https://m.place.naver.com/place/13500975/home"
 },
 {
  "id": 248,
  "name": "삼성자동차운전전문학원 ",
  "phone": "061-337-6663",
  "address": "전라남도 나주시 산포면 산남로 131 (등정리) ",
  "type": "1,2종보통",
  "homepage": "http://samsungdriving.modoo.at",
  "lng": 126.826851,
  "lat": 35.0455563,
  "image": "https://github.com/dbswhdaks/academy_image/blob/main/240.png?raw=true",
  "kakao": "https://place.map.kakao.com/m/15105435?referrer=daumsearch_local",
  "naver": "https://m.place.naver.com/place/13500960/home"
 },
 {
  "id": 249,
  "name": "새천년자동차운전전문학원 ",
  "phone": "061-337-8332",
  "address": "전라남도 나주시 왕곡면 고분로 1465 ",
  "type": "1,2종보통,1종대형,소형견인차,2종소형(원동기)",
  "homepage": "http://mydriving.co.kr/",
  "lng": 126.697563,
  "lat": 34.9658724,
  "image": "https://github.com/dbswhdaks/academy_image/blob/main/241.png?raw=true",
  "kakao": "https://place.map.kakao.com/m/8362872?referrer=daumsearch_local",
  "naver": "https://m.place.naver.com/place/31378504/home"
 },
 {
  "id": 250,
  "name": "아시아자동차운전전문학원  ",
  "phone": "061-383-5777",
  "address": "전라남도 담양군 담양읍 운교길 43 (운교리) ",
  "type": "1,2종보통,1종대형",
  "homepage": "http://www.asiadrive.co.kr/",
  "lng": 126.979441,
  "lat": 35.3317594,
  "image": "https://github.com/dbswhdaks/academy_image/blob/main/242.png?raw=true",
  "kakao": "https://place.map.kakao.com/m/7990314?referrer=daumsearch_local",
  "naver": "https://m.place.naver.com/place/13500965/home"
 },
 {
  "id": 251,
  "name": "우양자동차운전전문학원 ",
  "phone": "061-381-0381",
  "address": "전라남도 담양군 봉산면 죽향대로 729 (기곡리) ",
  "type": "1,2종보통,1종대형,대형견인차,소형견인차,2종소형(원동기)",
  "homepage": "http://www.wooyang21.co.kr",
  "lng": 126.972961,
  "lat": 35.273604,
  "image": "https://github.com/dbswhdaks/academy_image/blob/main/243.png?raw=true",
  "kakao": "https://place.map.kakao.com/m/18228394?referrer=daumsearch_local",
  "naver": "https://m.place.naver.com/place/13500981/home"
 },
 {
  "id": 252,
  "name": "남경자동차운전전문학원 ",
  "phone": "061-243-7000",
  "address": "전라남도 목포시 선곡로 20 (옥암동) ",
  "type": "1,2종보통,1종대형,대형견인차",
  "homepage": "http://www.nkdrive.com",
  "lng": 126.431053,
  "lat": 34.8165822,
  "image": "https://github.com/dbswhdaks/academy_image/blob/main/244.png?raw=true",
  "kakao": "https://place.map.kakao.com/m/10184998?referrer=daumsearch_local",
  "naver": "https://m.place.naver.com/place/13500966/home"
 },
 {
  "id": 253,
  "name": "호남자동차운전전문학원 ",
  "phone": "061-277-1002",
  "address": "전라남도 목포시 대양로109번길 39 (연산동) ",
  "type": "1,2종보통,1종대형",
  "homepage": "http://www.hndrive.co.kr",
  "lng": 126.392505,
  "lat": 34.8253912,
  "image": "https://github.com/dbswhdaks/academy_image/blob/main/245.png?raw=true",
  "kakao": "https://place.map.kakao.com/m/11196641?referrer=daumsearch_local",
  "naver": "https://m.place.naver.com/place/1130074735/home"
 },
 {
  "id": 254,
  "name": "목포자동차운전전문학원 ",
  "phone": "061-454-1183",
  "address": "전라남도 무안군 청계면 영산로 1743-27 (도림리) ",
  "type": "1,2종보통",
  "homepage": "http://mpdrive.co.kr/",
  "lng": 126.426905,
  "lat": 34.9117216,
  "image": "https://github.com/dbswhdaks/academy_image/blob/main/246.png?raw=true",
  "kakao": "https://place.map.kakao.com/m/9074974?referrer=daumsearch_local",
  "naver": "https://m.place.naver.com/place/20583022/home"
 },
 {
  "id": 255,
  "name": "무안자동차운전전문학원 ",
  "phone": "061-454-2508",
  "address": "전라남도 무안군 망운면 현해로 195 (목동리) ",
  "type": "1,2종보통",
  "lng": 126.399779,
  "lat": 35.0225304,
  "image": "https://github.com/dbswhdaks/academy_image/blob/main/247.png?raw=true",
  "kakao": "https://place.map.kakao.com/m/9776216?referrer=daumsearch_local",
  "naver": "https://m.place.naver.com/place/13500974/home"
 },
 {
  "id": 256,
  "name": "상무자동차운전전문학원 ",
  "phone": "061-858-1700",
  "address": "전라남도 보성군 벌교읍 조정래길 210-27 ",
  "type": "1,2종보통,1종대형,대형견인차,구난차,2종소형(원동기)",
  "homepage": "http://www.상무자동차.com/",
  "lng": 127.341226,
  "lat": 34.8589632,
  "image": "https://github.com/dbswhdaks/academy_image/blob/main/248.png?raw=true",
  "kakao": "https://place.map.kakao.com/m/17922281?referrer=daumsearch_local",
  "naver": "https://m.place.naver.com/place/13500977/home"
 },
 {
  "id": 257,
  "name": "대우자동차운전전문학원 ",
  "phone": "061-741-3434",
  "address": "전라남도 순천시 녹색로 1462 (대룡동) ",
  "type": "1,2종보통",
  "lng": 127.486856,
  "lat": 34.9114434,
  "image": "https://github.com/dbswhdaks/academy_image/blob/main/249.png?raw=true",
  "kakao": "https://place.map.kakao.com/m/10238509?referrer=daumsearch_local",
  "naver": "https://m.place.naver.com/place/13500968/home"
 },
 {
  "id": 258,
  "name": "쌍용자동차운전전문학원 ",
  "phone": "061-721-3331",
  "address": "전라남도 순천시 비례길 100 (조례동) ",
  "type": "1,2종보통,1종대형",
  "homepage": "http://순천쌍용자동차학원.com",
  "lng": 127.538583,
  "lat": 34.9555644,
  "image": "https://github.com/dbswhdaks/academy_image/blob/main/250.png?raw=true",
  "naver": "https://m.place.naver.com/place/13500970/home"
 },
 {
  "id": 259,
  "name": "현대자동차운전전문학원 ",
  "phone": "061-721-0700",
  "address": "전라남도 순천시 해룡면 순광로 234-16 (복성리) ",
  "type": "1,2종보통,1종대형,대형견인차",
  "lng": 127.546013,
  "lat": 34.963229,
  "image": "https://github.com/dbswhdaks/academy_image/blob/main/251.png?raw=true",
  "kakao": "https://place.map.kakao.com/m/9946405?referrer=daumsearch_local",
  "naver": "https://m.place.naver.com/place/13202447/home"
 },
 {
  "id": 260,
  "name": "동성자동차운전전문학원 ",
  "phone": "061-643-2222",
  "address": "전라남도 여수시 신월로 496-12 (신월동) ",
  "type": "1,2종보통,1종대형,대형견인차",
  "homepage": "http://dsschool.modoo.at/",
  "lng": 127.700807,
  "lat": 34.7235893,
  "image": "https://github.com/dbswhdaks/academy_image/blob/main/252.png?raw=true",
  "kakao": "https://place.map.kakao.com/m/7840004?referrer=daumsearch_local",
  "naver": "https://m.place.naver.com/place/1456273452/home"
 },
 {
  "id": 261,
  "name": "아시아자동차운전전문학원 ",
  "phone": "061-685-7372",
  "address": "전라남도 여수시 율촌면 봉정길 72-11 (취적리) ",
  "type": "1,2종보통,1종대형",
  "homepage": "http://www.ok114.co.kr/0616857373",
  "lng": 127.594913,
  "lat": 34.8538976,
  "image": "https://github.com/dbswhdaks/academy_image/blob/main/253.png?raw=true",
  "kakao": "https://place.map.kakao.com/m/13122183?referrer=daumsearch_local",
  "naver": "https://m.place.naver.com/place/13500972/home"
 },
 {
  "id": 262,
  "name": "영진자동차운전전문학원 ",
  "phone": "061-666-1111",
  "address": "전라남도 여수시 만성로 231 (만흥동) ",
  "type": "1,2종보통,1종대형",
  "lng": 127.720499,
  "lat": 34.7761789,
  "image": "https://github.com/dbswhdaks/academy_image/blob/main/254.png?raw=true",
  "kakao": "https://place.map.kakao.com/m/8004654?referrer=daumsearch_local",
  "naver": "https://m.place.naver.com/place/13500971/home"
 },
 {
  "id": 263,
  "name": "영광자동차운전전문학원 ",
  "phone": "061-351-4033",
  "address": "전라남도 영광군 영광읍 함영로 3462 (녹사리) ",
  "type": "1,2종보통,1종대형",
  "lng": 126.506661,
  "lat": 35.2589766,
  "image": "https://github.com/dbswhdaks/academy_image/blob/main/255.png?raw=true",
  "kakao": "https://place.map.kakao.com/m/10646468?referrer=daumsearch_local",
  "naver": "https://m.place.naver.com/place/13500967/home"
 },
 {
  "id": 264,
  "name": "신세계자동차운전전문학원 ",
  "phone": "061-472-4500",
  "address": "전라남도 영암군 신북면 신북공단로 23 ",
  "type": "1,2종보통,1종대형,소형견인차,2종소형(원동기)",
  "homepage": "http://sdrive.co.kr/",
  "lng": 126.704633,
  "lat": 34.9241649,
  "image": "https://github.com/dbswhdaks/academy_image/blob/main/256.png?raw=true",
  "kakao": "https://place.map.kakao.com/m/10069120?referrer=daumsearch_local",
  "naver": "https://m.place.naver.com/place/37254069/home"
 },
 {
  "id": 265,
  "name": "천관자동차운전전문학원 ",
  "phone": "061-863-3333",
  "address": "전라남도 장흥군 장흥읍 장흥대로 3083 (덕제리) ",
  "type": "1,2종보통,1종대형",
  "homepage": "https://blog.naver.com/xiflytoyou",
  "lng": 126.887387,
  "lat": 34.6478585,
  "image": "https://github.com/dbswhdaks/academy_image/blob/main/257.png?raw=true",
  "kakao": "https://place.map.kakao.com/m/11604941?referrer=daumsearch_local",
  "naver": "https://m.place.naver.com/place/1321451835/home"
 },
 {
  "id": 266,
  "name": "대흥자동차운전전문학원 ",
  "phone": "061-535-3441",
  "address": "전라남도 해남군 북평면 와룡길 37 (와룡리) ",
  "type": "1,2종보통,1종대형,대형견인차",
  "homepage": "http://010-3752-3441.jvt.kr",
  "lng": 126.647465,
  "lat": 34.430818,
  "image": "https://github.com/dbswhdaks/academy_image/blob/main/258.png?raw=true",
  "kakao": "https://place.map.kakao.com/m/20637669?referrer=daumsearch_local",
  "naver": "https://m.place.naver.com/place/13500982/home"
 },
 {
  "id": 267,
  "name": "신세계자동차운전전문학원 ",
  "phone": "061-375-2020",
  "address": "전라남도 화순군 화순읍 정곡로 65 ",
  "type": "1,2종보통,1종대형,소형견인차,2종소형(원동기)",
  "lng": 126.956205,
  "lat": 35.0460431,
  "image": "https://github.com/dbswhdaks/academy_image/blob/main/259.png?raw=true",
  "kakao": "https://place.map.kakao.com/m/1122490071?referrer=daumsearch_local",
  "naver": "https://m.place.naver.com/place/38403721/home"
 },
 {
  "id": 268,
  "name": "모양자동차운전전문학원 ",
  "phone": "063-562-1606",
  "address": "전라북도 고창군 아산면 봉덕길 4 (봉덕리) ",
  "type": "1,2종보통,1종대형,2종소형(원동기)",
  "lng": 126.648694,
  "lat": 35.4356732,
  "image": "https://github.com/dbswhdaks/academy_image/blob/main/260.png?raw=true",
  "kakao": "https://place.map.kakao.com/m/18887257?referrer=daumsearch_local",
  "naver": "https://m.place.naver.com/place/13500941/home"
 },
 {
  "id": 269,
  "name": "군산자동차운전전문학원 ",
  "phone": "063-467-1122",
  "address": "전라북도 군산시 개사길 58-2 (개사동) ",
  "type": "1,2종보통",
  "lng": 126.679881,
  "lat": 35.9345327,
  "image": "https://github.com/dbswhdaks/academy_image/blob/main/261.png?raw=true",
  "kakao": "https://place.map.kakao.com/m/8826796?referrer=daumsearch_local",
  "naver": "https://m.place.naver.com/place/13500949/home"
 },
 {
  "id": 270,
  "name": "금강자동차운전전문학원 ",
  "phone": "063-463-6561",
  "address": "전라북도 군산시 공단대로 179 (수송동) ",
  "type": "1,2종보통,1종대형",
  "lng": 126.72185,
  "lat": 35.9588179,
  "image": "https://github.com/dbswhdaks/academy_image/blob/main/262.png?raw=true",
  "kakao": "https://place.map.kakao.com/m/9681602?referrer=daumsearch_local",
  "naver": "https://m.place.naver.com/place/1842076883/home"
 },
 {
  "id": 271,
  "name": "오성자동차운전전문학원 ",
  "phone": "063-453-9121",
  "address": "전라북도 군산시 개정면 아동북길 55 (아동리) ",
  "type": "1,2종보통,1종대형,2종소형(원동기)",
  "lng": 126.769658,
  "lat": 35.9823427,
  "image": "https://github.com/dbswhdaks/academy_image/blob/main/263.png?raw=true",
  "kakao": "https://place.map.kakao.com/m/9199880?referrer=daumsearch_local",
  "naver": "https://m.place.naver.com/place/13500946/home"
 },
 {
  "id": 272,
  "name": "퍼스트자동차운전전문학원 ",
  "phone": "063-453-5881",
  "address": "전라북도 군산시 개정면 당산1길 20 ",
  "type": "1,2종보통,1종대형",
  "homepage": "http://http://www.firstcar.co.kr",
  "lng": 126.783535,
  "lat": 35.9762043,
  "image": "https://github.com/dbswhdaks/academy_image/blob/main/264.png?raw=true",
  "kakao": "https://place.map.kakao.com/m/10890934?referrer=daumsearch_local",
  "naver": "https://m.place.naver.com/place/13542937/home"
 },
 {
  "id": 273,
  "name": "벽성자동차운전전문학원 ",
  "phone": "063-547-6200",
  "address": "전라북도 김제시 백산면 옥석길 2 (상정리) ",
  "type": "1,2종보통,1종대형,2종소형(원동기)",
  "lng": 126.910304,
  "lat": 35.8359991,
  "image": "https://github.com/dbswhdaks/academy_image/blob/main/265.png?raw=true",
  "kakao": "https://place.map.kakao.com/m/7896564?referrer=daumsearch_local",
  "naver": "https://m.place.naver.com/place/13500943/home"
 },
 {
  "id": 274,
  "name": "아시아자동차운전전문학원 ",
  "phone": "063-545-4800",
  "address": "전라북도 김제시 복죽로 538 (연정동) ",
  "type": "1,2종보통,1종대형",
  "homepage": "https://www.asiadriving.co.kr/",
  "lng": 126.863727,
  "lat": 35.7993818,
  "image": "https://github.com/dbswhdaks/academy_image/blob/main/266.png?raw=true",
  "kakao": "https://place.map.kakao.com/m/18919128?referrer=daumsearch_local",
  "naver": "https://m.place.naver.com/place/13324819/home"
 },
 {
  "id": 275,
  "name": "남원자동차운전전문학원 ",
  "phone": "063-631-0711",
  "address": "전라북도 남원시 요천로 1798-6 (월락동) ",
  "type": "1,2종보통,1종대형,대형견인차,구난차,2종소형(원동기)",
  "homepage": "http://www.namwondrive.com",
  "lng": 127.408616,
  "lat": 35.4219823,
  "image": "https://github.com/dbswhdaks/academy_image/blob/main/267.png?raw=true",
  "kakao": "https://place.map.kakao.com/m/8245451?referrer=daumsearch_local",
  "naver": "https://m.place.naver.com/place/1703510888/home"
 },
 {
  "id": 276,
  "name": "참길자동차운전전문학원 ",
  "phone": "063-581-0234",
  "address": "전라북도 부안군 부안읍 부령로 153-17 (신운리) ",
  "type": "1,2종보통,1종대형",
  "lng": 126.757111,
  "lat": 35.7354122,
  "image": "https://github.com/dbswhdaks/academy_image/blob/main/268.png?raw=true",
  "kakao": "https://place.map.kakao.com/m/8599538?referrer=daumsearch_local",
  "naver": "https://m.place.naver.com/place/13500953/home?entry=pll"
 },
 {
  "id": 277,
  "name": "가나안자동차운전전문학원 ",
  "phone": "063-837-5000",
  "address": "전라북도 익산시 무왕로 779-26 (현영동) ",
  "type": "1,2종보통,1종대형,소형견인차",
  "homepage": "https://blog.naver.com/canaancar",
  "lng": 126.94388,
  "lat": 35.965204,
  "image": "https://github.com/dbswhdaks/academy_image/blob/main/269.png?raw=true",
  "kakao": "https://place.map.kakao.com/m/8718813?referrer=daumsearch_local",
  "naver": "https://m.place.naver.com/place/13218401/home?entry=pll"
 },
 {
  "id": 278,
  "name": "강남자동차운전전문학원 ",
  "phone": "063-834-8831",
  "address": "전라북도 익산시 부송로16길 40 (부송동) ",
  "type": "1,2종보통",
  "homepage": "http://www.kangnamcar.com",
  "lng": 126.991671,
  "lat": 35.9684889,
  "image": "https://github.com/dbswhdaks/academy_image/blob/main/270.png?raw=true",
  "kakao": "https://place.map.kakao.com/m/2088366503?referrer=daumsearch_local",
  "naver": "https://m.place.naver.com/place/13500957/home?entry=pll"
 },
 {
  "id": 279,
  "name": "길자동차운전전문학원 ",
  "phone": "063-831-0123",
  "address": "전라북도 익산시 신왕길 32 (석왕동) ",
  "type": "1,2종보통,1종대형,대형견인차,2종소형(원동기)",
  "homepage": "http://www.gildriving.co.kr/",
  "lng": 127.027715,
  "lat": 35.9732269,
  "image": "https://github.com/dbswhdaks/academy_image/blob/main/271.png?raw=true",
  "kakao": "https://place.map.kakao.com/m/8186138?referrer=daumsearch_local",
  "naver": "https://m.place.naver.com/place/13500947/home?entry=pll"
 },
 {
  "id": 280,
  "name": "스마일자동차운전전문학원 ",
  "phone": "063-862-5000",
  "address": "전라북도 익산시 함열읍 용지길 17 (다송리) ",
  "type": "1,2종보통,1종대형,대형견인차",
  "homepage": "https://blog.naver.com/feelgoodi1",
  "lng": 126.951637,
  "lat": 36.0405682,
  "image": "https://github.com/dbswhdaks/academy_image/blob/main/272.png?raw=true",
  "kakao": "https://place.map.kakao.com/m/7977172?referrer=daumsearch_local",
  "naver": "https://m.place.naver.com/place/13272794/home?entry=pll"
 },
 {
  "id": 281,
  "name": "우리자동차운전전문학원 ",
  "phone": "063-834-1088",
  "address": "전라북도 익산시 서동로46길 134-32 (석암동) ",
  "type": "1,2종보통,1종대형",
  "homepage": "http://www.wooridrive.net",
  "lng": 127.004109,
  "lat": 35.9373246,
  "image": "https://github.com/dbswhdaks/academy_image/blob/main/273.png?raw=true",
  "kakao": "https://place.map.kakao.com/m/12612050?referrer=daumsearch_local",
  "naver": "https://m.place.naver.com/place/1928051289/home?entry=pll"
 },
 {
  "id": 282,
  "name": "이리자동차운전전문학원 ",
  "phone": "063-852-2073",
  "address": "전라북도 익산시 익산대로33길 46-5 (신용동) ",
  "type": "1,2종보통,1종대형",
  "homepage": "http://이리자동차운전전문학원.com/",
  "lng": 126.95089,
  "lat": 35.9771395,
  "image": "https://github.com/dbswhdaks/academy_image/blob/main/274.png?raw=true",
  "kakao": "https://place.map.kakao.com/m/8410953?referrer=daumsearch_local",
  "naver": "https://m.place.naver.com/place/13500944/home?entry=pll"
 },
 {
  "id": 283,
  "name": "그랜드자동차운전전문학원 ",
  "phone": "063-226-0031 ",
  "address": "전라북도 전주시 완산구 콩쥐팥쥐로 1616 ",
  "type": "1,2종보통",
  "homepage": "https://www.granddriving.com/",
  "lng": 127.075793,
  "lat": 35.8243304,
  "image": "https://github.com/dbswhdaks/academy_image/blob/main/275.png?raw=true",
  "kakao": "https://place.map.kakao.com/m/1426772333?referrer=daumsearch_local",
  "naver": "https://m.place.naver.com/place/1688215771/home?entry=pll"
 },
 {
  "id": 284,
  "name": "동성자동차운전전문학원 ",
  "phone": "063-244-4660",
  "address": "전라북도 전주시 덕진구 장재길 4 (우아동3가) ",
  "type": "1,2종보통,1종대형,2종소형(원동기)",
  "homepage": "http://www.dsda.co.kr",
  "lng": 127.166196,
  "lat": 35.8463211,
  "image": "https://github.com/dbswhdaks/academy_image/blob/main/276.png?raw=true",
  "kakao": "https://place.map.kakao.com/m/9801296?referrer=daumsearch_local",
  "naver": "https://m.place.naver.com/place/30902969/home?entry=pll"
 },
 {
  "id": 285,
  "name": "동아자동차운전전문학원 ",
  "phone": "063-211-1100",
  "address": "전라북도 전주시 덕진구 추천로 209 (팔복동) ",
  "type": "1,2종보통",
  "homepage": "http://063donga.com",
  "lng": 127.112698,
  "lat": 35.85462,
  "image": "https://github.com/dbswhdaks/academy_image/blob/main/277.png?raw=true",
  "kakao": "https://place.map.kakao.com/m/10300363?referrer=daumsearch_local",
  "naver": "https://m.place.naver.com/place/13165487/home?entry=pll"
 },
 {
  "id": 287,
  "name": "신진자동차운전전문학원 ",
  "phone": "063-212-7771",
  "address": "전라북도 전주시 덕진구 추천로 201 (팔복동) ",
  "type": "1,2종보통",
  "homepage": "http://sinjindrive7.co.kr",
  "lng": 127.112254,
  "lat": 35.8536651,
  "image": "https://github.com/dbswhdaks/academy_image/blob/main/278.png?raw=true",
  "kakao": "https://place.map.kakao.com/m/8421002?referrer=daumsearch_local",
  "naver": "https://m.place.naver.com/place/33040268/home?entry=pll"
 },
 {
  "id": 288,
  "name": "전북전주자동차운전전문학원 ",
  "phone": "063-255-2000 ",
  "address": "전라북도 전주시 덕진구 초포다리로 117-6 (호성동1가) ",
  "type": "1,2종보통",
  "homepage": "http://www.jbdrive.co.kr",
  "lng": 127.159262,
  "lat": 35.8665995,
  "image": "https://github.com/dbswhdaks/academy_image/blob/main/279.png?raw=true",
  "kakao": "https://place.map.kakao.com/m/8079095?referrer=daumsearch_local",
  "naver": "https://m.place.naver.com/place/1878274520/home"
 },
 {
  "id": 289,
  "name": "전주자동차운전전문학원 ",
  "phone": "063-212-1177",
  "address": "전라북도 전주시 덕진구 한내로 21 (팔복동) ",
  "type": "1,2종보통",
  "homepage": "http://seoshindrive.kr",
  "lng": 127.100663,
  "lat": 35.8716731,
  "image": "https://github.com/dbswhdaks/academy_image/blob/main/280.png?raw=true",
  "naver": "https://m.place.naver.com/place/13500956/home"
 },
 {
  "id": 290,
  "name": "한일자동차운전전문학원 ",
  "phone": "063-214-2700",
  "address": "전라북도 전주시 덕진구 비석날로 25 (여의동) ",
  "type": "1,2종보통,2종소형(원동기)",
  "homepage": "http://www.hanilac.co.kr",
  "lng": 127.077371,
  "lat": 35.8544312,
  "image": "https://github.com/dbswhdaks/academy_image/blob/main/281.png?raw=true",
  "kakao": "https://place.map.kakao.com/m/1875748669?referrer=daumsearch_local",
  "naver": "https://m.place.naver.com/place/1986910030/home?entry=pll"
 },
 {
  "id": 291,
  "name": "구룡자동차운전전문학원 ",
  "phone": "063-535-9400",
  "address": "전라북도 정읍시 용북길 57-11 (구룡동) ",
  "type": "1,2종보통",
  "lng": 126.878007,
  "lat": 35.5789366,
  "image": "https://github.com/dbswhdaks/academy_image/blob/main/282.png?raw=true",
  "kakao": "https://place.map.kakao.com/m/8767526?referrer=daumsearch_local",
  "naver": "https://m.place.naver.com/place/13500942/home?entry=pll"
 },
 {
  "id": 292,
  "name": "정읍자동차운전전문학원 ",
  "phone": "063-535-3192",
  "address": "전라북도 정읍시 충정로 638 (용계동) ",
  "type": "1,2종보통,1종대형",
  "lng": 126.818413,
  "lat": 35.5867471,
  "image": "https://github.com/dbswhdaks/academy_image/blob/main/283.png?raw=true",
  "kakao": "https://place.map.kakao.com/m/9378223?referrer=daumsearch_local",
  "naver": "https://m.place.naver.com/place/13500954/home?entry=pll"
 },
 {
  "id": 293,
  "name": "원영자동차운전전문학원 ",
  "phone": "064-764-7991",
  "address": "제주특별자치도 서귀포시 남원읍 태위로398번길 31 (위미리)  ",
  "type": "1,2종보통",
  "homepage": "https://blog.naver.com/wonyoungcar88",
  "lng": 126.690329,
  "lat": 33.2720919,
  "image": "https://github.com/dbswhdaks/academy_image/blob/main/284.png?raw=true",
  "kakao": "https://place.map.kakao.com/m/18491116?referrer=daumsearch_local",
  "naver": "https://m.place.naver.com/place/13501054/home?entry=pll"
 },
 {
  "id": 294,
  "name": "제일자동차운전전문학원 ",
  "phone": "064-738-0054",
  "address": "제주특별자치도 서귀포시 일주서로 1156-19 (상예동) ",
  "type": "1,2종보통",
  "homepage": "http://제일자동차.kr",
  "lng": 126.389715,
  "lat": 33.2664228,
  "image": "https://github.com/dbswhdaks/academy_image/blob/main/285.png?raw=true",
  "kakao": "https://place.map.kakao.com/m/10806711?referrer=daumsearch_local",
  "naver": "https://m.place.naver.com/place/13103228/home?entry=pll"
 },
 {
  "id": 295,
  "name": "삼다자동차운전전문학원 ",
  "phone": "064-721-3198",
  "address": "제주특별자치도 제주시 서회천길 88 ",
  "type": "1,2종보통",
  "homepage": "http://www.samdacar.com",
  "lng": 126.612353,
  "lat": 33.4667913,
  "image": "https://github.com/dbswhdaks/academy_image/blob/main/286.png?raw=true",
  "kakao": "https://place.map.kakao.com/m/243967826?referrer=daumsearch_local",
  "naver": "https://m.place.naver.com/place/13500797/home?entry=pll"
 },
 {
  "id": 296,
  "name": "제주자동차운전전문학원 ",
  "phone": "064-711-4700",
  "address": "제주특별자치도 제주시 오등 13길 38 ",
  "type": "1,2종보통,1종대형,2종소형(원동기)",
  "homepage": "https://www.instagram.com/jejucar69",
  "lng": 126.528637,
  "lat": 33.4791044,
  "image": "https://github.com/dbswhdaks/academy_image/blob/main/287.png?raw=true",
  "kakao": "https://place.map.kakao.com/m/8522247?referrer=daumsearch_local",
  "naver": "https://m.place.naver.com/place/580506558/home?entry=pll"
 },
 {
  "id": 297,
  "name": "탐라자동차운전전문학원 ",
  "phone": "064-744-5050",
  "address": "제주특별자치도 제주시 은수길 94",
  "type": "1,2종보통",
  "lng": 126.509995,
  "lat": 33.4899682,
  "image": "https://github.com/dbswhdaks/academy_image/blob/main/288.png?raw=true",
  "kakao": "https://place.map.kakao.com/m/592599002?referrer=daumsearch_local",
  "naver": "https://m.place.naver.com/place/13501055/home?entry=pll"
 },
 {
  "id": 298,
  "name": "한라자동차운전전문학원 ",
  "phone": "064-755-9900",
  "address": "제주특별자치도 제주시 간월동로5길 52 (아라2동)  ",
  "type": "1,2종보통",
  "homepage": "http://www.onbao.com/dbria/sub.html?cd_com=3125217",
  "lng": 126.547206,
  "lat": 33.4896864,
  "image": "https://github.com/dbswhdaks/academy_image/blob/main/289.png?raw=true",
  "kakao": "https://place.map.kakao.com/m/11252459?referrer=daumsearch_local",
  "naver": "https://m.place.naver.com/place/13501052/home?entry=pll"
 },
 {
  "id": 299,
  "name": "현대자동차운전전문학원 ",
  "phone": "064-799-0999 ",
  "address": "제주특별자치도 제주시 애월읍 평화로 2032-20",
  "type": "1,2종보통,1종대형,2종소형(원동기)",
  "homepage": "https://blog.naver.com/sanghunsa",
  "lng": 126.385185,
  "lat": 33.4037506,
  "image": "https://github.com/dbswhdaks/academy_image/blob/main/290.png?raw=true",
  "kakao": "https://place.map.kakao.com/m/369109107?referrer=daumsearch_local",
  "naver": "https://m.place.naver.com/place/1343964862/home?entry=pll"
 },
 {
  "id": 300,
  "name": "서부자동차운전전문학원 ",
  "phone": "042-841-5070",
  "address": "충청남도 계룡시 엄사면 계백로 3080-10 (유동리)",
  "type": "1,2종보통,1종대형,소형견인차,2종소형(원동기)",
  "homepage": "http://www.sblicense.co.kr",
  "lng": 127.239839,
  "lat": 36.2798899,
  "image": "https://github.com/dbswhdaks/academy_image/blob/main/291.png?raw=true",
  "kakao": "https://place.map.kakao.com/m/27139702?referrer=daumsearch_local",
  "naver": "https://m.place.naver.com/place/34283688/home?entry=pll"
 },
 {
  "id": 301,
  "name": "공주자동차운전전문학원",
  "phone": "041-855-3188",
  "address": "충청남도 공주시 소학길 17 (소학동) ",
  "type": "1,2종보통",
  "homepage": "https://kongjudrive.modoo.at",
  "lng": 127.15439,
  "lat": 36.450135,
  "image": "https://github.com/dbswhdaks/academy_image/blob/main/292.png?raw=true",
  "kakao": "https://place.map.kakao.com/m/8184526?referrer=daumsearch_local",
  "naver": "https://m.place.naver.com/place/20107697/home?entry=pll"
 },
 {
  "id": 302,
  "name": "금산자동차운전전문학원",
  "phone": "041-754-4700",
  "address": "충남 금산군 금산읍 장자길 31",
  "type": "1,2종보통,1종대형,대형견인차,구난차,소형견인차,2종소형(원동기)",
  "homepage": "http://www.gumsancar.co.kr",
  "lng": 127.458722,
  "lat": 36.0973568,
  "image": "https://github.com/dbswhdaks/academy_image/blob/main/293.png?raw=true",
  "kakao": "https://place.map.kakao.com/m/14882632?referrer=daumsearch_local",
  "naver": "https://m.place.naver.com/place/13500920/home?entry=pll"
 },
 {
  "id": 303,
  "name": "건양자동차운전전문학원",
  "phone": "041-742-7500",
  "address": "충청남도 논산시 은진면 탑정로 332-22 (교촌리) ",
  "type": "1,2종보통,1종대형,소형견인차",
  "homepage": "http://kydrive.edenstore.co.kr",
  "lng": 127.100782,
  "lat": 36.1695639,
  "image": "https://github.com/dbswhdaks/academy_image/blob/main/294.png?raw=true",
  "kakao": "https://place.map.kakao.com/m/16829525?referrer=daumsearch_local",
  "naver": "https://m.place.naver.com/place/13500918/home?entry=pll"
 },
 {
  "id": 304,
  "name": "당진자동차운전전문학원",
  "phone": "041-355-3523",
  "address": "충청남도 당진시 송악읍 광명길 27 (광명리) ",
  "type": "1,2종보통",
  "homepage": "http://djcar.edenstore.co.kr",
  "lng": 126.714864,
  "lat": 36.894071,
  "image": "https://github.com/dbswhdaks/academy_image/blob/main/295.png?raw=true",
  "kakao": "https://place.map.kakao.com/m/7815005?referrer=daumsearch_local",
  "naver": "https://m.place.naver.com/place/13500933/home?entry=pll"
 },
 {
  "id": 305,
  "name": "충남자동차운전전문학원 ",
  "phone": "041-352-0456",
  "address": "충청남도 당진시 원당로 141-10 (원당동) ",
  "type": "1,2종보통",
  "homepage": "https://cnauto.modoo.at/",
  "lng": 126.643177,
  "lat": 36.9131237,
  "image": "https://github.com/dbswhdaks/academy_image/blob/main/296.png?raw=true",
  "kakao": "https://place.map.kakao.com/m/8420738?referrer=daumsearch_local",
  "naver": "https://m.place.naver.com/place/13481930/home?entry=pll"
 },
 {
  "id": 306,
  "name": "합덕자동차운전전문학원",
  "phone": "041-362-6175",
  "address": "충청남도 당진시 우강면 중방로 62-6 (송산리)",
  "type": "1,2종보통",
  "homepage": "http://hddrive.co.kr/index.html",
  "lng": 126.762648,
  "lat": 36.8174662,
  "image": "https://github.com/dbswhdaks/academy_image/blob/main/297.png?raw=true",
  "kakao": "https://place.map.kakao.com/m/9575992?referrer=daumsearch_local",
  "naver": "https://m.place.naver.com/place/13500931/home?entry=pll"
 },
 {
  "id": 307,
  "name": "뉴보령현대자동차운전전문학원",
  "phone": "041-931-3330",
  "address": "충청남도 보령시 대해로 173 (내항동) ",
  "type": "1,2종보통,1종대형",
  "lng": 126.582452,
  "lat": 36.3377177,
  "image": "https://github.com/dbswhdaks/academy_image/blob/main/298.png?raw=true",
  "kakao": "https://place.map.kakao.com/m/621977096?referrer=daumsearch_local",
  "naver": "https://m.place.naver.com/place/32839873/home?entry=pll"
 },
 {
  "id": 308,
  "name": "보령동양자동차운전전문학원",
  "phone": "041-931-3000",
  "address": "충청남도 보령시 중앙로 187-66 (대천동) ",
  "type": "1,2종보통,1종대형,대형견인차,구난차,소형견인차,2종소형(원동기)",
  "homepage": "http://www.drivea.net",
  "lng": 126.582529,
  "lat": 36.352371,
  "image": "https://github.com/dbswhdaks/academy_image/blob/main/299.png?raw=true",
  "kakao": "https://place.map.kakao.com/m/26012984?referrer=daumsearch_local",
  "naver": "https://m.place.naver.com/place/11681520/home?entry=pll"
 },
 {
  "id": 309,
  "name": "제일자동차운전전문학원",
  "phone": "041-931-1515",
  "address": "충청남도 보령시 청소면 충서로 3660 (야현리) ",
  "type": "1,2종보통",
  "homepage": "http://www.041-931-1515.kti114.net",
  "lng": 126.588956,
  "lat": 36.4306683,
  "image": "https://github.com/dbswhdaks/academy_image/blob/main/300.png?raw=true",
  "kakao": "https://place.map.kakao.com/m/842529358?referrer=daumsearch_local",
  "naver": "https://m.place.naver.com/place/37807741/home?entry=pll"
 },
 {
  "id": 310,
  "name": "백제자동차운전전문학원",
  "phone": "041-835-0708",
  "address": "충청남도 부여군 부여읍 왕릉로 244-7 (능산리) ",
  "type": "1,2종보통,1종대형,2종소형(원동기)",
  "lng": 126.959804,
  "lat": 36.2721539,
  "image": "https://github.com/dbswhdaks/academy_image/blob/main/301.png?raw=true",
  "kakao": "https://place.map.kakao.com/m/10397782?referrer=daumsearch_local",
  "naver": "https://m.place.naver.com/place/13500929/home?entry=pll"
 },
 {
  "id": 311,
  "name": "서산자동차운전전문학원",
  "phone": "041-665-7432",
  "address": "충청남도 서산시 소탐1로 83 (수석동) ",
  "type": "1,2종보통,1종대형",
  "homepage": "http://www.seosandriving.co.kr",
  "lng": 126.493911,
  "lat": 36.7581146,
  "image": "https://github.com/dbswhdaks/academy_image/blob/main/302.png?raw=true",
  "kakao": "https://place.map.kakao.com/m/9970667?referrer=daumsearch_local",
  "naver": "https://m.place.naver.com/place/13500794/home?entry=pll"
 },
 {
  "id": 312,
  "name": "중앙자동차운전전문학원",
  "phone": "041-664-3515",
  "address": "충청남도 서산시 쌍연북3길 17 (동문동)",
  "type": "1,2종보통",
  "lng": 126.467769,
  "lat": 36.7844926,
  "image": "https://github.com/dbswhdaks/academy_image/blob/main/303.png?raw=true",
  "kakao": "https://place.map.kakao.com/m/10000908?referrer=daumsearch_local",
  "naver": "https://m.place.naver.com/place/1642423936/home?entry=pll"
 },
 {
  "id": 313,
  "name": "현대자동차운전전문학원 ",
  "phone": "041-663-5555",
  "address": "충청남도 서산시 음암면 중앙로 734 (유계리)",
  "type": "1,2종보통,1종대형",
  "lng": 126.512517,
  "lat": 36.7415671,
  "image": "https://github.com/dbswhdaks/academy_image/blob/main/304.png?raw=true",
  "kakao": "https://place.map.kakao.com/m/15477623?referrer=daumsearch_local",
  "naver": "https://m.place.naver.com/place/13500930/home?entry=pll"
 },
 {
  "id": 314,
  "name": "서해자동차운전전문학원",
  "phone": "041-953-3468",
  "address": "충청남도 서천군 종천면 종판로 62 (랑평리)",
  "type": "1,2종보통,1종대형",
  "lng": 126.643548,
  "lat": 36.1150883,
  "image": "https://github.com/dbswhdaks/academy_image/blob/main/305.png?raw=true",
  "kakao": "https://place.map.kakao.com/m/19265265?referrer=daumsearch_local",
  "naver": "https://m.place.naver.com/place/13500922/home?entry=pll"
 },
 {
  "id": 315,
  "name": "삼성자동차운전전문학원",
  "phone": "041-531-2255",
  "address": "충청남도 아산시 온천대로 1790-12 (남동) ",
  "type": "1,2종보통,1종대형,소형견인차",
  "homepage": "http://www.ssdriver.com",
  "lng": 127.034236,
  "lat": 36.7727631,
  "image": "https://github.com/dbswhdaks/academy_image/blob/main/306.png?raw=true",
  "kakao": "https://place.map.kakao.com/m/12664835?referrer=daumsearch_local",
  "naver": "https://m.place.naver.com/place/13500939/home?entry=pll"
 },
 {
  "id": 316,
  "name": "용화자동차운전전문학원 ",
  "phone": "041-549-8891",
  "address": "충청남도 아산시 시민로 215 (용화동) ",
  "type": "1,2종보통",
  "homepage": "http://www.yhdrive.com",
  "lng": 126.993038,
  "lat": 36.7688746,
  "image": "https://github.com/dbswhdaks/academy_image/blob/main/307.png?raw=true",
  "kakao": "https://place.map.kakao.com/m/11185357?referrer=daumsearch_local",
  "naver": "https://m.place.naver.com/place/13500938/home?entry=pll"
 },
 {
  "id": 317,
  "name": "우석자동차운전전문학원",
  "phone": "041-548-3600",
  "address": "충청남도 아산시 배방읍 배방로 194 (북수리) ",
  "type": "1,2종보통,1종대형,2종소형(원동기)",
  "homepage": "http://www.wsdrive.kr",
  "lng": 127.068329,
  "lat": 36.7694598,
  "image": "https://github.com/dbswhdaks/academy_image/blob/main/308.png?raw=true",
  "kakao": "https://place.map.kakao.com/m/9944927?referrer=daumsearch_local",
  "naver": "https://m.place.naver.com/place/12829515/home?entry=pll"
 },
 {
  "id": 318,
  "name": "예산자동차운전전문학원",
  "phone": "041-331-4200",
  "address": "충청남도 예산군 오가면 오신로 244 (원천리)",
  "type": "1,2종보통,1종대형,2종소형(원동기)",
  "homepage": "http://www.yesandriving.co.kr",
  "lng": 126.785954,
  "lat": 36.6956083,
  "image": "https://github.com/dbswhdaks/academy_image/blob/main/309.png?raw=true",
  "kakao": "https://place.map.kakao.com/m/8013549?referrer=daumsearch_local",
  "naver": "https://m.place.naver.com/place/13500934/home?entry=pll"
 },
 {
  "id": 319,
  "name": "삼원자동차운전전문학원",
  "phone": "041-622-1515",
  "address": "충청남도 천안시 서북구 성거읍 석문길 10-3 (요방리) ",
  "type": "1,2종보통",
  "homepage": "http://swdriving.co.kr",
  "lng": 127.181331,
  "lat": 36.8500364,
  "image": "https://github.com/dbswhdaks/academy_image/blob/main/310.png?raw=true",
  "kakao": "https://place.map.kakao.com/m/22300051?referrer=daumsearch_local",
  "naver": "https://m.place.naver.com/place/93680129/home?entry=pll"
 },
 {
  "id": 320,
  "name": "영일자동차운전전문학원",
  "phone": "041-585-0155",
  "address": "충청남도 천안시 서북구 성환읍 성환2로 8-15 (매주리) ",
  "type": "1,2종보통",
  "homepage": "http://www.yidrive.co.kr",
  "lng": 127.130187,
  "lat": 36.9074846,
  "image": "https://github.com/dbswhdaks/academy_image/blob/main/311.png?raw=true",
  "kakao": "https://place.map.kakao.com/m/9885266?referrer=daumsearch_local",
  "naver": "https://m.place.naver.com/place/13302351/home?entry=pll"
 },
 {
  "id": 321,
  "name": "중앙삼성자동차운전전문학원",
  "phone": "041-558-4411",
  "address": "충청남도 천안시 서북구 부대3길 7 (부대동) ",
  "type": "1,2종보통",
  "homepage": "http://www.jshw.co.kr",
  "lng": 127.15551,
  "lat": 36.8448824,
  "image": "https://github.com/dbswhdaks/academy_image/blob/main/312.png?raw=true",
  "kakao": "https://place.map.kakao.com/m/19394281?referrer=daumsearch_local",
  "naver": "https://m.place.naver.com/place/12811669/home?entry=pll"
 },
 {
  "id": 322,
  "name": "천안대성자동차운전전문학원 ",
  "phone": "041-568-7070",
  "address": "충청남도 천안시 동남구 풍세로 839 (용곡동) ",
  "type": "1,2종보통,1종대형,소형견인차",
  "homepage": "http://www.dsdrive.co.kr",
  "lng": 127.143637,
  "lat": 36.7846313,
  "image": "https://github.com/dbswhdaks/academy_image/blob/main/313.png?raw=true",
  "kakao": "https://place.map.kakao.com/m/9597738?referrer=daumsearch_local",
  "naver": "https://m.place.naver.com/place/1675298564/home?entry=pll"
 },
 {
  "id": 323,
  "name": "천안자동차운전전문학원",
  "phone": "041-551-2420",
  "address": "충청남도 천안시 서북구 천안대로 962 (두정동) ",
  "type": "1,2종보통,1종대형,소형견인차,2종소형(원동기)",
  "homepage": "http://www.cacar.kr",
  "lng": 127.154466,
  "lat": 36.8277268,
  "image": "https://github.com/dbswhdaks/academy_image/blob/main/314.png?raw=true",
  "kakao": "https://place.map.kakao.com/m/8100787?referrer=daumsearch_local",
  "naver": "https://m.place.naver.com/place/12881156/home?entry=pll"
 },
 {
  "id": 324,
  "name": "반도자동차운전전문학원 ",
  "phone": "041-675-3040",
  "address": "충청남도 태안군 태안읍 서해로 2120 (인평리)",
  "type": "1,2종보통",
  "lng": 126.339251,
  "lat": 36.7584989,
  "image": "https://github.com/dbswhdaks/academy_image/blob/main/315.png?raw=true",
  "kakao": "https://place.map.kakao.com/m/15109785?referrer=daumsearch_local",
  "naver": "https://m.place.naver.com/place/13500924/home?entry=pll"
 },
 {
  "id": 325,
  "name": "홍성자동차운전전문학원 ",
  "phone": "041-634-7077",
  "address": "충청남도 홍성군 홍성읍 충서로1216번길 6-16 (남장리) ",
  "type": "1,2종보통",
  "lng": 126.658112,
  "lat": 36.583911,
  "image": "https://github.com/dbswhdaks/academy_image/blob/main/316.png?raw=true",
  "kakao": "https://place.map.kakao.com/m/12366779?referrer=daumsearch_local",
  "naver": "https://m.place.naver.com/place/13500935/home?entry=pll"
 },
 {
  "id": 326,
  "name": "단양자동차운전전문학원",
  "phone": "043-422-4466",
  "address": "충청북도 단양군 매포읍 안동길 77 (안동리) ",
  "type": "1,2종보통",
  "lng": 128.315669,
  "lat": 37.0315896,
  "image": "https://github.com/dbswhdaks/academy_image/blob/main/317.png?raw=true",
  "kakao": "https://place.map.kakao.com/m/10257513?referrer=daumsearch_local",
  "naver": "https://m.place.naver.com/place/12752673/home?entry=pll"
 },
 {
  "id": 327,
  "name": "보은자동차운전전문학원 ",
  "phone": "043-543-8724",
  "address": "충청북도 보은군 수한면 정자말길 54-1 (병원리) ",
  "type": "1,2종보통",
  "lng": 127.685759,
  "lat": 36.4807935,
  "image": "https://github.com/dbswhdaks/academy_image/blob/main/318.png?raw=true",
  "naver": "https://m.place.naver.com/place/13500911/home?entry=pll"
 },
 {
  "id": 328,
  "name": "동원자동차운전전문학원",
  "phone": "043-731-7991",
  "address": "충청북도 옥천군 군북면 옥천로 1074 (이백리)",
  "type": "1,2종보통,1종대형,대형견인차,2종소형(원동기)",
  "homepage": "http://www.driver21.co.kr",
  "lng": 127.531126,
  "lat": 36.3321505,
  "image": "https://github.com/dbswhdaks/academy_image/blob/main/319.png?raw=true",
  "kakao": "https://place.map.kakao.com/m/10204142?referrer=daumsearch_local",
  "naver": "https://m.place.naver.com/place/11571139/home?entry=pll"
 },
 {
  "id": 329,
  "name": "옥천자동차운전전문학원",
  "phone": "043-733-3200",
  "address": "충청북도 옥천군 군서면 성왕로 854 (오동리) ",
  "type": "1,2종보통,1종대형",
  "homepage": "http://www.3dayok.co.kr",
  "lng": 127.541097,
  "lat": 36.2986816,
  "image": "https://github.com/dbswhdaks/academy_image/blob/main/320.png?raw=true",
  "kakao": "https://place.map.kakao.com/m/9948631?referrer=daumsearch_local",
  "naver": "https://m.place.naver.com/place/13500907/home?entry=pll"
 },
 {
  "id": 330,
  "name": "한일자동차운전전문학원 ",
  "phone": "043-872-2396",
  "address": "충청북도 음성군 음성읍 중리길 42 (신천리)",
  "type": "1,2종보통,1종대형",
  "lng": 127.676694,
  "lat": 36.9279547,
  "image": "https://github.com/dbswhdaks/academy_image/blob/main/321.png?raw=true",
  "kakao": "https://place.map.kakao.com/m/9555089?referrer=daumsearch_local",
  "naver": "https://m.place.naver.com/place/13500914/home?entry=pll"
 },
 {
  "id": 331,
  "name": "제천자동차운전전문학원",
  "phone": "043-642-3551",
  "address": "충청북도 제천시 강저로15길 14 (강제동) ",
  "type": "1,2종보통,1종대형,대형견인차,구난차",
  "homepage": "http://www.schooldriver.co.kr",
  "lng": 128.195256,
  "lat": 37.1223148,
  "image": "https://github.com/dbswhdaks/academy_image/blob/main/322.png?raw=true",
  "kakao": "https://place.map.kakao.com/m/10799205?referrer=daumsearch_local",
  "naver": "https://m.place.naver.com/place/13500916/home?entry=pll"
 },
 {
  "id": 332,
  "name": "현대자동차운전전문학원",
  "phone": "043-647-1164",
  "address": "충청북도 제천시 내토로 959 (고암동) ",
  "type": "1,2종보통",
  "lng": 128.232226,
  "lat": 37.1616617,
  "image": "https://github.com/dbswhdaks/academy_image/blob/main/323.png?raw=true",
  "naver": "https://m.place.naver.com/place/13500915/home?entry=pll"
 },
 {
  "id": 333,
  "name": "진천자동차운전전문학원",
  "phone": "043-533-3593",
  "address": "충청북도 진천군 진천읍 문화6길 41-1 (장관리) ",
  "type": "1,2종보통,1종대형,소형견인차,2종소형(원동기)",
  "homepage": "http://www.jcdrive.co.kr",
  "lng": 127.433788,
  "lat": 36.8637677,
  "image": "https://github.com/dbswhdaks/academy_image/blob/main/324.png?raw=true",
  "kakao": "https://place.map.kakao.com/m/9959563?referrer=daumsearch_local",
  "naver": "https://m.place.naver.com/place/13500908/home?entry=pll"
 },
 {
  "id": 334,
  "name": "교원자동차운전전문학원",
  "phone": "043-235-7060",
  "address": "충청북도 청주시 흥덕구 강내면 석화사인길 109-5 ",
  "type": "1,2종보통,1종대형,대형견인차,구난차,소형견인차,2종소형(원동기)",
  "homepage": "http://www.kyowoncar.com",
  "lng": 127.368144,
  "lat": 36.6294925,
  "image": "https://github.com/dbswhdaks/academy_image/blob/main/325.png?raw=true",
  "kakao": "https://place.map.kakao.com/m/12545517?referrer=daumsearch_local",
  "naver": "https://m.place.naver.com/place/13104093/home?entry=pll"
 },
 {
  "id": 335,
  "name": "금성자동차운전전문학원",
  "phone": "043-296-3001",
  "address": "충청북도 청주시 서원구 구룡산로 228 (산남동) ",
  "type": "1,2종보통",
  "lng": 127.469807,
  "lat": 36.6148443,
  "image": "https://github.com/dbswhdaks/academy_image/blob/main/326.png?raw=true",
  "kakao": "https://place.map.kakao.com/m/8814426?referrer=daumsearch_local",
  "naver": "https://m.place.naver.com/place/13482535/home?entry=pll"
 },
 {
  "id": 336,
  "name": "대영자동차운전전문학원",
  "phone": "043-218-7701",
  "address": "충청북도 청주시 청원구 내수읍 구성길 17 (구성리) ",
  "type": "1,2종보통,1종대형,대형견인차,구난차,소형견인차,2종소형(원동기)",
  "homepage": "http://www.dydriving.co.kr",
  "lng": 127.504866,
  "lat": 36.6824746,
  "image": "https://github.com/dbswhdaks/academy_image/blob/main/327.png?raw=true",
  "kakao": "https://place.map.kakao.com/m/27587545?referrer=daumsearch_local",
  "naver": "https://m.place.naver.com/place/12274990/home?entry=pll"
 },
 {
  "id": 337,
  "name": "덕일자동차운전전문학원 ",
  "phone": "043-214-2100",
  "address": "충청북도 청주시 청원구 내수읍 은곡묵방길 22-27 (은곡리) ",
  "type": "1,2종보통,1종대형",
  "homepage": "http://dukilcar.com",
  "lng": 127.526975,
  "lat": 36.7089619,
  "image": "https://github.com/dbswhdaks/academy_image/blob/main/328.png?raw=true",
  "kakao": "https://place.map.kakao.com/m/8181660?referrer=daumsearch_local",
  "naver": "https://m.place.naver.com/place/1716049652/home?entry=pll"
 },
 {
  "id": 338,
  "name": "삼성자동차운전전문학원 ",
  "phone": "043-277-3388",
  "address": "충청북도 청주시 흥덕구 평동로 29 (향정동) ",
  "type": "1,2종보통",
  "homepage": "http://www.samsungdrive.com",
  "lng": 127.424725,
  "lat": 36.6535631,
  "image": "https://github.com/dbswhdaks/academy_image/blob/main/329.png?raw=true",
  "kakao": "https://place.map.kakao.com/m/12516855?referrer=daumsearch_local",
  "naver": "https://m.place.naver.com/place/11625568/home?entry=pll"
 },
 {
  "id": 339,
  "name": "상당자동차운전전문학원",
  "phone": "043-288-9500",
  "address": "충청북도 청주시 상당구 목련로 106-72(운동동) ",
  "type": "1,2종보통",
  "homepage": "https://sddriving.modoo.at",
  "lng": 127.519519,
  "lat": 36.6001755,
  "image": "https://github.com/dbswhdaks/academy_image/blob/main/330.png?raw=true",
  "kakao": "https://place.map.kakao.com/m/7922979?referrer=daumsearch_local",
  "naver": "https://m.place.naver.com/place/13565824/home?entry=pll"
 },
 {
  "id": 340,
  "name": "아주자동차운전전문학원 ",
  "phone": "043-237-9600",
  "address": "충청북도 청주시 서원구 남이면 양촌3길13 (양촌리) ",
  "type": "1,2종보통,1종대형,소형견인차",
  "homepage": "http://www.ajucar.co.kr",
  "lng": 127.472047,
  "lat": 36.5916044,
  "image": "https://github.com/dbswhdaks/academy_image/blob/main/331.png?raw=true",
  "kakao": "https://place.map.kakao.com/m/97292186?referrer=daumsearch_local",
  "naver": "https://m.place.naver.com/place/1745222962/home?entry=pll"
 },
 {
  "id": 341,
  "name": "청주자동차운전전문학원 ",
  "phone": "043-234-9200",
  "address": "충청북도 청주시 흥덕구 죽천로79번길 4 (복대동) ",
  "type": "1,2종보통",
  "homepage": "http://www.woonjeon.co.kr",
  "lng": 127.432416,
  "lat": 36.6388653,
  "image": "https://github.com/dbswhdaks/academy_image/blob/main/332.png?raw=true",
  "kakao": "https://place.map.kakao.com/m/1390799953?referrer=daumsearch_local",
  "naver": "https://m.place.naver.com/place/11493302/home?entry=pll"
 },
 {
  "id": 342,
  "name": "충북자동차운전전문학원",
  "phone": "043-211-2500",
  "address": "충청북도 청주시 청원구 사천로18번길 34 (사천동) ",
  "type": "1,2종보통",
  "homepage": "http://www.cbcar.kr",
  "lng": 127.480914,
  "lat": 36.6791312,
  "image": "https://github.com/dbswhdaks/academy_image/blob/main/333.png?raw=true",
  "kakao": "https://place.map.kakao.com/m/8557704?referrer=daumsearch_local",
  "naver": "https://m.place.naver.com/place/13500909/home?entry=pll"
 },
 {
  "id": 343,
  "name": "조양자동차운전전문학원",
  "phone": "043-853-5801",
  "address": "충청북도 충주시 샘골길 26 (안림동) ",
  "type": "1,2종보통,1종대형,대형견인차",
  "homepage": "https://jydrive.modoo.at",
  "lng": 127.950343,
  "lat": 36.96755,
  "image": "https://github.com/dbswhdaks/academy_image/blob/main/334.png?raw=true",
  "kakao": "https://place.map.kakao.com/m/8065776?referrer=daumsearch_local",
  "naver": "https://m.place.naver.com/place/13500846/home?entry=pll"
 },
 {
  "id": 344,
  "name": "좋은자동차운전전문학원",
  "phone": "043-856-8760",
  "address": "충청북도 충주시 중앙탑면 첨단산업로 1235 (가흥리) ",
  "type": "1,2종보통",
  "lng": 127.864556,
  "lat": 37.069311,
  "image": "https://github.com/dbswhdaks/academy_image/blob/main/335.png?raw=true",
  "kakao": "https://place.map.kakao.com/m/8073924?referrer=daumsearch_local",
  "naver": "https://m.place.naver.com/place/13540217/home?entry=pll"
 },
 {
  "id": 345,
  "name": "중앙자동차운전전문학원",
  "phone": "043-853-1601",
  "address": "충청북도 충주시 대소원면 완오신촌길 12 (만정리)",
  "type": "1,2종보통,1종대형",
  "homepage": "http://www.jodrive.co.kr",
  "lng": 127.851035,
  "lat": 36.9658513,
  "image": "https://github.com/dbswhdaks/academy_image/blob/main/336.png?raw=true",
  "kakao": "https://place.map.kakao.com/m/9344654?referrer=daumsearch_local",
  "naver": "https://m.place.naver.com/place/13500814/home?entry=pll"
 },
 {
  "id": 346,
  "name": "청담자동차운전전문학원",
  "phone": "031-840-9100",
  "address": "경기 양주시 청담로42번길 63-15",
  "type": "1,2종보통",
  "homepage": "http://cddrive.co.kr/",
  "lng": 127.074454,
  "lat": 37.8051935,
  "image": "https://github.com/dbswhdaks/academy_image/blob/main/337.png?raw=true",
  "kakao": "https://place.map.kakao.com/m/1232884803?referrer=daumsearch_local",
  "naver": "https://m.place.naver.com/place/1562224779/home?entry=pll"
 },
 {
  "id": 347,
  "name": "청룡자동차운전학원(일반학원)",
  "phone": "0507-1371-5001",
  "address": "경기도 용인시 기흥구 고매로 196",
  "type": "1,2종보통",
  "homepage": "http://www.crcar.co.kr/",
  "lng": 127.1048,
  "lat": 37.2847119,
  "image": "https://github.com/dbswhdaks/academy_image/blob/main/338.png?raw=true",
  "kakao": "https://place.map.kakao.com/m/485976854?referrer=daumsearch_local",
  "naver": "https://m.place.naver.com/place/1219314815/home?entry=pll"
 },
 {
  "id": 348,
  "name": "신판교자동차운전학원(일반학원)",
  "phone": "031-321-3232",
  "address": "경기 용인시 처인구 포곡읍 포곡로 249-4 신판교 운전면허학원",
  "type": "1,2종보통",
  "homepage": "http://www.sspangyodrive.co.kr",
  "lng": 127.227854,
  "lat": 37.2784405,
  "image": "https://github.com/dbswhdaks/academy_image/blob/main/339.png?raw=true",
  "kakao": "https://place.map.kakao.com/m/748749788?referrer=daumsearch_local",
  "naver": "https://m.place.naver.com/place/1894532996/home?entry=pll"
 },
 {
  "id": 349,
  "name": "경일자동차운전학원(일반학원)",
  "phone": "0507-1402-7780",
  "address": "제주 서귀포시 대정읍 암반수마농로 21",
  "type": "1,2종보통",
  "homepage": "https://cafe.naver.com/kyungilds",
  "lng": 126.241027,
  "lat": 33.2316208,
  "image": "https://github.com/dbswhdaks/academy_image/blob/main/340.png?raw=true",
  "kakao": "https://place.map.kakao.com/m/17719989?referrer=daumsearch_local",
  "naver": "https://m.place.naver.com/place/17025735/home?entry=pll"
 },
 {
  "id": 350,
  "name": "정촌자동차운전학원(일반학원)",
  "phone": "055-747-7333",
  "address": "경남 진주시 정촌면 삼일로122번길 9-18",
  "type": "1,2종보통",
  "homepage": "http://www.jcdrive.kr/",
  "lng": 128.102649,
  "lat": 35.1291749,
  "image": "https://github.com/dbswhdaks/academy_image/blob/main/341.png?raw=true",
  "kakao": "https://place.map.kakao.com/m/21135311?referrer=daumsearch_local",
  "naver": "https://m.place.naver.com/place/33500304/home?entry=pll"
 },
 {
  "id": 351,
  "name": "문경자동차운전학원(일반학원)",
  "phone": "054-553-5311",
  "address": "경북 문경시 유곡불정로 187-7",
  "type": "1,2종보통",
  "lng": 128.1521,
  "lat": 36.6255453,
  "image": "https://github.com/dbswhdaks/academy_image/blob/main/342.png?raw=true",
  "kakao": "https://place.map.kakao.com/m/17650090?referrer=daumsearch_local",
  "naver": "https://m.place.naver.com/place/13542405/home?entry=pll"
 }
]
